Timestamp,Shop Name,RocketPay Registered Number,City,State,BDM Name,Visit Status,Latitude,Longitude,Keys Sold,Key Amount,Current Key Balance,Wallet Transaction ID
,,7990036324,VALSAD,GUJARAT,Anil Sukhlal Yadav,,,,,,2,
24/03/2025 17:41:41,Keval mobile,9737256525,RAJKOT,GUJARAT,HARDIK GOHIL,Not Interested,22.3131763,70.7595555,,,1,
05/03/2025 20:07:15,Hariom Electronics,9825118782,RAJKOT,GUJARAT,HARDIK GOHIL,Not Interested,22.2778313,70.8146188,,,18,
21/03/2025 20:10:27,Jeel Mobile,9824652752,RAJKOT,GUJARAT,HARDIK GOHIL,Not Interested,22.2892316,70.8028482,,,13,
07/03/2025 19:21:15,Shree Balaji Mobile,8153933918,RAJKOT,GUJARAT,HARDIK GOHIL,Not Interested,22.2901923,70.8099664,,,10,
25/03/2025 11:44:13,Shree krishna mobile,6266365619,RAISEN,MADHYA PRADESH,NIKHIL YADAV,Revisit,23.3176862,77.7726047,,,0,
07/03/2025 14:31:13,Aarith mobile,9630144392,RAISEN,MADHYA PRADESH,NIKHIL YADAV,Revisit,23.4500939,77.7676766,,,,
22/03/2025 15:03:55,Yadav mobile,,RAISEN,MADHYA PRADESH,NIKHIL YADAV,Revisit,23.3294259,77.7958385,,,,
20/03/2025 15:31:42,Jeetu mobile,9977115396,RAISEN,MADHYA PRADESH,NIKHIL YADAV,Revisit,23.4862074,77.7358328,,,1,
17/03/2025 15:37:10,Test Mobile shop,9893871413,BENGALURU,Karnataka,Nishant,Service Call,12.9091145,77.6326914,,,,
18/03/2025 18:48:12,Jai mahakal mobile salmatpur,7772862639,VIDISHA,Madhya Pradesh,NIKHIL YADAV,Revisit,23.340384,77.8281156,,,,
18/03/2025 18:47:26,Balaji mobile shop,9713597754,RAISEN,MADHYA PRADESH,NIKHIL YADAV,Not Interested,23.3406127,77.8280512,,,1,
22/03/2025 14:57:17,Sidd communication vds,,VIDISHA,MADHYA PRADESH,NIKHIL YADAV,Not Interested,23.3296345,77.795771,,,,
18/03/2025 15:02:47,Phone House,7778878652,SURENDRA NAGAR,GUJARAT,HARDIK GOHIL,Not Interested,22.2916563,70.8146772,,,0,
05/03/2025 15:38:36,Meenesh mobile,8878909719,RAISEN,MADHYA PRADESH,NIKHIL YADAV,Revisit,23.3220979,77.7808406,,,1,
07/03/2025 14:29:02,Jai mahakal mobile salmatpur,7772862639,VIDISHA,Madhya Pradesh,NIKHIL YADAV,Revisit,23.4500937,77.7676767,,,,
04/03/2025 14:07:29,Om Sain Ram telicom,9670487295,FARRUKHABAD,UTTAR PRADESH,Vijay Kumar,Revisit,27.4055723,79.5276412,,,9,
08/03/2025 15:14:08,Shri sahu mobile silwani,9977837140,RAISEN,MADHYA PRADESH,NIKHIL YADAV,Revisit,23.3294236,77.7981936,,,5,
18/03/2025 11:38:57,Captain mobile salamatpur,6232081111,VIDISHA,Madhya Pradesh,NIKHIL YADAV,Service Call,23.3392632,77.8283986,,,15,
20/03/2025 11:15:30,S S Mobile Shop,7007429454,HAMIRPUR,UTTAR PRADESH,Ajay,Revisit,25.812665,80.371235,,,1,
08/03/2025 15:12:32,Nandlal mobile Sultanpur,9074385005,RAISEN,MADHYA PRADESH,NIKHIL YADAV,Service Call,23.3296314,77.798182,,,5,
21/03/2025 19:59:06,Vishal mobile,9826021689,RAISEN,MADHYA PRADESH,NIKHIL YADAV,Revisit,23.3408918,77.8279726,,,,
06/03/2025 15:45:22,Satyam mobile center,7668759065,ETAH,UTTAR PRADESH,Vijay Kumar,Key Purchased,27.5433002,79.3260364,,,1,
25/03/2025 14:21:33,Rajeev comnication,7880373277,ETAH,UTTAR PRADESH,Vijay Kumar,Revisit,27.5433244,79.3259965,,,8,
15/03/2025 15:43:06,Shaili Mobile,9045121306,SAHARANPUR,UTTAR PRADESH,NAVNEET KUMAR,Not Interested,29.9564846,77.5469022,,,,
01/03/2025 12:19:39,Atif Mobaile shop,,MAHOBA,UTTAR PRADESH,Dheerendra Kumar Kushwaha,Revisit,25.1386098,80.0079241,,,,
03/03/2025 12:12:21,Quality mobaile & electronic,,MAHOBA,UTTAR PRADESH,Dheerendra Kumar Kushwaha,Revisit,25.000823,80.2594873,,,,
12/03/2025 18:02:00,Vishal mobile center sultanpur,,RAISEN,MADHYA PRADESH,NIKHIL YADAV,Service Call,23.3298844,77.797605,,,,
25/03/2025 14:24:48,Mohit comnication,9453202036,FARRUKHABAD,UTTAR PRADESH,Vijay Kumar,Revisit,27.543396,79.3259956,,,,
01/03/2025 14:56:28,King mobaile shop,,MAHOBA,Uttar Pradesh,Dheerendra Kumar Kushwaha,Revisit,25.1397593,80.0068813,,,,
01/03/2025 19:36:18,Tyagi mobile,9760717070,SAHARANPUR,UTTAR PRADESH,NAVNEET KUMAR,Revisit,29.9457127,77.5350005,,,1,
04/03/2025 19:13:35,Sanjay Mobaile shop,9935111104,MAHOBA,Uttar Pradesh,Dheerendra Kumar Kushwaha,Revisit,25.1359325,80.0015545,,,,
25/03/2025 14:23:27,J S mobile,9412481010,ETAH,UTTAR PRADESH,Vijay Kumar,Revisit,27.5433318,79.3259821,,,2,
12/03/2025 17:14:28,Sayma telicom Hathipur,7007409027,FARRUKHABAD,UTTAR PRADESH,Vijay Kumar,Revisit,27.4054751,79.5273456,,,49,
01/03/2025 14:24:07,Shri radhe Mobaile accessories,,HAMIRPUR,UTTAR PRADESH,Dheerendra Kumar Kushwaha,Revisit,25.1382417,80.0086305,,,,
04/03/2025 19:15:44,Anuja mobaile shop,,MAHOBA,Uttar Pradesh,Dheerendra Kumar Kushwaha,Revisit,25.1359406,80.0015526,,,,
21/03/2025 10:39:09,King mobile,,HAMIRPUR,Uttar Pradesh,Dheerendra Kumar Kushwaha,Revisit,25.3401632,80.4312345,,,,
03/03/2025 16:44:18,Chaurasia Mobaile shop,,MAHOBA,UTTAR PRADESH,Dheerendra Kumar Kushwaha,Revisit,24.9990495,80.2646814,,,,
03/03/2025 16:23:52,Phalak mobail shop,,BANDA,UTTAR PRADESH,Dheerendra Kumar Kushwaha,Revisit,24.9946528,80.2661071,,,,
01/03/2025 17:01:35,Siyar mobaile shop,9140545615,MAHOBA,UTTAR PRADESH,Dheerendra Kumar Kushwaha,Revisit,25.1394986,80.007202,,,11,
01/03/2025 14:43:36,Bombe mobaile shop,,HAMIRPUR,Uttar Pradesh,Dheerendra Kumar Kushwaha,Revisit,25.1394986,80.007202,,,,
11/03/2025 18:33:04,Jay Ma sarda mobile ripering sentar,8736873282,MIRZAPUR,Uttar Pradesh,Prabha Kant Pandey,Not Interested,25.2011316,82.1266736,,,1,
01/03/2025 17:39:35,Rawat Mobaile shop,8009712527,MAHOBA,Uttar Pradesh,Dheerendra Kumar Kushwaha,Revisit,25.1398024,80.0067723,,,1,
06/03/2025 16:48:24,Gungun election & mobaile,,MAHOBA,UTTAR PRADESH,Dheerendra Kumar Kushwaha,Revisit,25.2787632,79.8775077,,,,
04/03/2025 19:14:42,Gupta mobile shop,,MAHOBA,UTTAR PRADESH,Dheerendra Kumar Kushwaha,Revisit,25.1359406,80.0015526,,,,
10/03/2025 11:08:56,Akshar mobile,9023464929,AMRELI,GUJARAT,MALEK RAHIL RAFIKBHAI,Revisit,22.1725301,71.6628122,,,14,
04/03/2025 09:53:45,Lakhan mobile,,MAHOBA,UTTAR PRADESH,Dheerendra Kumar Kushwaha,Revisit,25.1374587,80.0085805,,,,
05/03/2025 16:31:36,Maa gayatri Mobaile shop,,HAMIRPUR,UTTAR PRADESH,Dheerendra Kumar Kushwaha,Revisit,25.1394986,80.007202,,,,
04/03/2025 16:15:08,Palak mobaile shop,,MAHOBA,UTTAR PRADESH,Dheerendra Kumar Kushwaha,Revisit,25.1408526,80.0070779,,,,
11/03/2025 18:32:36,Ja Ma Sharda Mobile shop,7068588055,MIRZAPUR,UTTAR PRADESH,Prabha Kant Pandey,Not Interested,25.2011312,82.1266746,,,,
01/03/2025 14:53:26,Hindustan mobaile,,MAHOBA,UTTAR PRADESH,Dheerendra Kumar Kushwaha,Revisit,25.1397602,80.0068813,,,,
19/03/2025 12:48:20,Agrawal Mobaile shop,,MAHOBA,UTTAR PRADESH,Dheerendra Kumar Kushwaha,Revisit,25.1413033,80.0043161,,,,
06/03/2025 15:36:11,Avinash mobaile,,MAHOBA,Uttar Pradesh,Dheerendra Kumar Kushwaha,Revisit,25.2930636,79.8841008,,,,
04/03/2025 17:28:27,Mahi mobaile shop,,MAHOBA,Uttar Pradesh,Dheerendra Kumar Kushwaha,Revisit,25.1397622,80.0068755,,,,
05/03/2025 18:21:49,FAHIM MOBILE Shop,,MAHOBA,UTTAR PRADESH,Dheerendra Kumar Kushwaha,Revisit,25.1397666,80.0068549,,,,
06/03/2025 18:19:18,Shubham mobail shop,,BANDA,UTTAR PRADESH,Dheerendra Kumar Kushwaha,Revisit,25.1398955,80.0069176,,,,
01/03/2025 14:29:37,Jatashankar mobaile shop,,MAHOBA,UTTAR PRADESH,Dheerendra Kumar Kushwaha,Revisit,25.1410247,80.0043231,,,,
10/03/2025 11:42:19,Harun mobile center,8756666162,MIRZAPUR,UTTAR PRADESH,Prabha Kant Pandey,Revisit,25.1940088,82.1275334,,,11,
12/03/2025 12:15:07,Ansh mobile & Ghadi,9651336964,ALLAHABAD,Uttar Pradesh,Prabha Kant Pandey,Revisit,25.1975153,82.128948,,,14,
10/03/2025 12:12:27,Meena mobile,9826828413,RAISEN,MADHYA PRADESH,NIKHIL YADAV,Revisit,23.3301051,77.7971355,,,0,
08/03/2025 12:13:36,Prince mobile shop,9792620029,FARRUKHABAD,UTTAR PRADESH,Vijay Kumar,Revisit,27.4330246,79.4084161,,,,
19/03/2025 19:36:15,Shri shyam mobile,7985575910,FARRUKHABAD,UTTAR PRADESH,Vijay Kumar,Revisit,27.5561933,79.3368742,,,1,
19/03/2025 13:38:30,Aarti mobaile shop,,BANDA,UTTAR PRADESH,Dheerendra Kumar Kushwaha,Revisit,25.1388364,80.0082504,,,,
05/03/2025 15:59:00,Prem mobile gallery,,MAHOBA,UTTAR PRADESH,Dheerendra Kumar Kushwaha,Revisit,25.1388127,80.0079009,,,,
01/03/2025 16:58:32,Bala ji Mobaile centre,9695164539,MAHOBA,Uttar Pradesh,Dheerendra Kumar Kushwaha,Revisit,25.1394986,80.007202,,,0,
18/03/2025 11:11:24,Gungun electronic,7024365775,MAHOBA,UTTAR PRADESH,Dheerendra Kumar Kushwaha,Revisit,25.1377714,80.0084005,,,,
19/03/2025 17:42:52,Agrasen mobaile shop,,HAMIRPUR,Uttar Pradesh,Dheerendra Kumar Kushwaha,Revisit,25.1116094,80.0621492,,,,
10/03/2025 14:30:17,Shukla mobile,8115181151,KAUSHAMBI,UTTAR PRADESH,Prabha Kant Pandey,Not Interested,25.4373369,81.8505154,,,1,
17/03/2025 17:07:59,Ravi & Abhishek mobile shop,7007349090,ALLAHABAD,Uttar Pradesh,Prabha Kant Pandey,Not Interested,25.2171355,82.0847625,,,1,
25/03/2025 17:02:06,Shani Mobaile shop lovekush nagar,8871602741,CHHATARPUR,MADHYA PRADESH,Dheerendra Kumar Kushwaha,Revisit,25.1369913,80.0026641,,,8,
07/03/2025 20:36:36,Maurya mobile shop kewadi,8874470196,BARABANKI,UTTAR PRADESH,Ranjeet Kumar,Revisit,27.0920174,81.1192468,,,,
25/03/2025 16:10:09,Aradhna Mobile Shop,9616723521,HAMIRPUR,UTTAR PRADESH,Ajay,Revisit,25.6840934,80.1074699,,,,
01/03/2025 15:23:18,Saudagar Mobile,9721718484,HAMIRPUR,UTTAR PRADESH,Ajay,Revisit,25.83566,80.1546667,,,,
19/03/2025 16:30:12,Modi the mobail shop,,BANDA,UTTAR PRADESH,Dheerendra Kumar Kushwaha,Revisit,25.13652,80.013507,,,,
20/03/2025 15:33:09,Deep mobail shop,,BANDA,UTTAR PRADESH,Dheerendra Kumar Kushwaha,Revisit,25.4741238,80.3314857,,,,
25/03/2025 15:02:19,Shree sai kripa mobaile point,,BANDA,UTTAR PRADESH,Dheerendra Kumar Kushwaha,Revisit,25.1317511,79.9956693,,,,
06/03/2025 16:44:01,Shree kanha mobaile point center,,MAHOBA,Uttar Pradesh,Dheerendra Kumar Kushwaha,Revisit,25.2787147,79.8774277,,,,
21/03/2025 12:16:55,Kartik mobaile,,BANDA,UTTAR PRADESH,Dheerendra Kumar Kushwaha,Revisit,25.287285,80.5759732,,,,
20/03/2025 16:36:48,Balaji Communication,9793398349,FARRUKHABAD,UTTAR PRADESH,Vijay Kumar,Revisit,27.5433167,79.3260173,,,10,
23/03/2025 11:37:58,Shree Mobaile world,7388617378,BANDA,UTTAR PRADESH,Dheerendra Kumar Kushwaha,Revisit,25.1374173,80.0089493,,,0,
07/03/2025 15:26:14,Raja mobile shop,,FARRUKHABAD,UTTAR PRADESH,Vijay Kumar,Revisit,27.5389006,79.4387071,,,,
23/03/2025 14:58:59,A to Z online shop,8928108059,DARBHANGA,BIHAR,Sajan Kumar,Revisit,26.3554296,86.0934173,,,0,
01/03/2025 12:59:32,Dinesh Mobile,8052005128,PRATAPGARH,UTTAR PRADESH,Satyendra Sharma,Revisit,26.232751,81.249059,,,1,
18/03/2025 14:15:47,Shri bala ji electronic,7007203522,MAHOBA,UTTAR PRADESH,Dheerendra Kumar Kushwaha,Revisit,25.1369659,80.002659,,,,
25/03/2025 15:30:33,Shivangi mobaile shop,,MAHOBA,UTTAR PRADESH,Dheerendra Kumar Kushwaha,Revisit,25.1323047,79.9498724,,,,
25/03/2025 18:44:45,Kamtanath mobaile shop,,MAHOBA,UTTAR PRADESH,Dheerendra Kumar Kushwaha,Revisit,25.1391445,80.0079855,,,,
15/03/2025 17:28:04,Aman mobile geratganj,,RAISEN,MADHYA PRADESH,NIKHIL YADAV,Revisit,23.332623,77.7852864,,,,
11/03/2025 17:55:00,Shivam mobile,9173689687,MIRZAPUR,UTTAR PRADESH,Prabha Kant Pandey,Revisit,25.2034479,82.1123623,,,7,
22/03/2025 13:03:34,Dharmendra Mobaile shop,,MAHOBA,UTTAR PRADESH,Dheerendra Kumar Kushwaha,Revisit,25.2942245,79.876781,,,,
25/03/2025 14:27:04,Smartdukan mobile shop,,FARRUKHABAD,UTTAR PRADESH,Vijay Kumar,Revisit,27.54333,79.32594,,,,
22/03/2025 18:53:17,Royal electronic & Mobaile shop,9935067809,HAMIRPUR,UTTAR PRADESH,Dheerendra Kumar Kushwaha,Revisit,25.1393902,80.007458,,,,
20/03/2025 20:52:34,Khatu syam mobile point,,FARRUKHABAD,UTTAR PRADESH,Vijay Kumar,Revisit,27.5559328,79.3376502,,,,
01/03/2025 15:28:16,Divvayanshi mobail old,6262704561,ASHOK NAGAR,MADHYA PRADESH,Lavkush,Revisit,24.6220901,77.5955035,,,,
25/03/2025 14:18:25,A.k. Mobaile shop rath,,MAHOBA,UTTAR PRADESH,Dheerendra Kumar Kushwaha,Revisit,25.1374173,80.0089493,,,,
25/03/2025 11:17:58,Kabi Mobile,,MAHOBA,UTTAR PRADESH,Dheerendra Kumar Kushwaha,Revisit,25.139787,80.0068764,,,,
22/03/2025 18:22:13,Khan mobaile shop,7024748897,MAHOBA,UTTAR PRADESH,Dheerendra Kumar Kushwaha,Revisit,25.139817,80.0068552,,,,
01/03/2025 18:06:07,Raza interprises,8210232014,MADHUBANI,BIHAR,Sajan Kumar,Revisit,26.4170871,85.8524652,,,,
13/03/2025 16:26:55,Sainik smart mobile shop,9058217205,ETAH,UTTAR PRADESH,Vijay Kumar,Key Purchased,27.4901214,79.1668844,,,16,
03/03/2025 16:06:31,Lakku star mobile shop,9319891640,ETAH,UTTAR PRADESH,Vijay Kumar,Revisit,27.4868417,79.179135,,,0,
18/03/2025 14:22:11,Sandeep Electronics,9956554709,HAMIRPUR,UTTAR PRADESH,Ajay,Revisit,25.8264137,80.1558323,,,,
05/03/2025 18:13:34,Dostana mobile shop,,FARRUKHABAD,UTTAR PRADESH,Vijay Kumar,Revisit,27.5433217,79.3259827,,,,
17/03/2025 19:22:16,Aadarsh mobile shop,9936030079,ALLAHABAD,Uttar Pradesh,Prabha Kant Pandey,Not Interested,25.2011315,82.1266739,,,,
22/03/2025 13:04:57,Rathor computer mobaile,7800424252,MAHOBA,UTTAR PRADESH,Dheerendra Kumar Kushwaha,Revisit,25.2942408,79.876776,,,26,
17/03/2025 11:06:27,Kutub mobaile shop,9125278888,MAHOBA,UTTAR PRADESH,Dheerendra Kumar Kushwaha,Revisit,25.3100279,79.7390704,,,,
01/03/2025 12:17:56,Kanafoosi mobile,8840220448,BARABANKI,Uttar Pradesh,Ranjeet Kumar,Revisit,27.0917515,81.1182641,,,,
22/03/2025 17:29:14,Tanu manu mobile sarvai,9685392411,CHHATARPUR,MADHYA PRADESH,Piyush Agrawal,Revisit,25.1384243,80.0095036,,,1,
22/03/2025 20:38:12,Arpit Mobile Shop,9264918043,HAMIRPUR,UTTAR PRADESH,Ajay,Revisit,25.8264867,80.15581,,,,
01/03/2025 17:06:57,Gupta Mobile Jaynagar,9934070651,MADHUBANI,BIHAR,Sajan Kumar,Revisit,26.441251,85.8112578,,,,
25/03/2025 18:59:26,Brothers Mobaile shop,,MAHOBA,UTTAR PRADESH,Dheerendra Kumar Kushwaha,Revisit,25.1393674,80.007624,,,,
01/03/2025 12:45:05,Navin Mobile Babubarhi,8084555388,MADHUBANI,BIHAR,Sajan Kumar,Revisit,26.3551357,86.0939257,,,,
01/03/2025 19:04:40,Sujling mobile,8840016793,JALAUN,UTTAR PRADESH,Rohit Kumar,Revisit,26.2860186,79.4304556,,,1,
05/03/2025 17:05:34,J S mobile,9412481010,ETAH,UTTAR PRADESH,Vijay Kumar,Revisit,27.5433852,79.326056,,,2,
17/03/2025 19:45:56,Dwarikadhees mobile shop,7054309050,MIRZAPUR,UTTAR PRADESH,Prabha Kant Pandey,Revisit,25.2039324,82.1283501,,,22,
08/03/2025 14:35:23,Smart mobile,8429572652,ALIGARH,UTTAR PRADESH,Rohit Kumar,Revisit,26.3401154,79.4087329,,,,
04/03/2025 15:41:14,R R mobile shop,,FARRUKHABAD,UTTAR PRADESH,Vijay Kumar,Revisit,27.4055858,79.5277615,,,,
25/03/2025 17:41:18,Darsh mobile jetendra lovekush nagar,9806181200,CHHATARPUR,MADHYA PRADESH,Piyush Agrawal,Revisit,25.0723292,79.6966883,,,35,
19/03/2025 14:54:03,Patel mobile shop gorihar,9516165252,CHHATARPUR,MADHYA PRADESH,Dheerendra Kumar Kushwaha,Revisit,25.1397251,80.0067997,,,1,
25/03/2025 19:00:35,Dev mobaile shop,,MAHOBA,Uttar Pradesh,Dheerendra Kumar Kushwaha,Revisit,25.139212,80.0081695,,,,
22/03/2025 11:48:49,Irfan  mobile shop,9554771765,MIRZAPUR,UTTAR PRADESH,Prabha Kant Pandey,Revisit,25.2036006,82.1290303,,,4,
04/03/2025 13:48:17,Jatasankar Mobile gadimalhra,6266311470,PANNA,MADHYA PRADESH,Piyush Agrawal,Revisit,24.9169563,79.5891347,,,1,
17/03/2025 12:25:42,Vinod telecom,7007632323,ALLAHABAD,Uttar Pradesh,Prabha Kant Pandey,Not Interested,25.2011319,82.1266734,,,0,
04/03/2025 13:50:34,Maa bagrajan gadimalhra,9039106082,PANNA,MADHYA PRADESH,Piyush Agrawal,Revisit,24.9169562,79.5891344,,,14,
04/03/2025 13:52:14,Araya mobile gadimalhra,8871724996,PANNA,MADHYA PRADESH,Piyush Agrawal,Revisit,24.9169568,79.5891343,,,1,
04/03/2025 13:54:02,Ashotosh mobile gadimalhra,9993936611,PANNA,MADHYA PRADESH,Piyush Agrawal,Revisit,24.9169576,79.5891343,,,1,
03/03/2025 14:36:12,Visvhari mobile,,ETAH,UTTAR PRADESH,Vijay Kumar,Revisit,27.5426498,79.13986,,,,
20/03/2025 20:48:30,Sharad mobile shop,9756144144,ETAH,UTTAR PRADESH,Vijay Kumar,Revisit,27.5555771,79.3382825,,,1,
08/03/2025 15:03:35,Manish Mobile Shop,8858878807,HAMIRPUR,UTTAR PRADESH,Ajay,Revisit,25.95819,80.149225,,,,
17/03/2025 19:39:38,Shivam Telecom,7753886591,HAMIRPUR,UTTAR PRADESH,Ajay,Revisit,25.82878,80.1574033,,,,
07/03/2025 15:17:51,The mobile word,9120150130,LUCKNOW,UTTAR PRADESH,Ranjeet Kumar,Revisit,27.0947007,81.1125019,,,1,
10/03/2025 10:40:16,Raja Mobile,7905381300,JALAUN,UTTAR PRADESH,Rohit Kumar,Revisit,26.3126948,79.3962884,,,,
25/03/2025 16:30:57,Lakhan mobile,,MAHOBA,UTTAR PRADESH,Dheerendra Kumar Kushwaha,Revisit,25.1322981,79.9508146,,,,
17/03/2025 19:21:38,Mukhiya mobile shop,9506000708,ALLAHABAD,UTTAR PRADESH,Prabha Kant Pandey,Revisit,25.2011315,82.1266739,,,0,
01/03/2025 17:45:56,Balaji Communication,9793398349,FARRUKHABAD,UTTAR PRADESH,Vijay Kumar,Revisit,27.5029882,79.429774,,,10,
01/03/2025 12:07:45,Sama mobile shop,7007105807,BARABANKI,UTTAR PRADESH,Ranjeet Kumar,Revisit,27.0915491,81.1181682,,,,
22/03/2025 18:22:17,Birangna Mobile lovekush nagar,9981338934,CHHATARPUR,MADHYA PRADESH,Piyush Agrawal,Revisit,25.1398756,80.0045065,,,14,
06/03/2025 11:07:36,Agrasen mobaile shop lovekush nagar,9893256302,CHHATARPUR,MADHYA PRADESH,Dheerendra Kumar Kushwaha,Revisit,25.1114033,80.06388,,,5,
08/03/2025 11:08:53,Govinda mobile,7024872797,HOSHANGABAD,MADHYA PRADESH,Lait Dhakad,Service Call,22.9625793,78.2517083,,,28,
12/03/2025 15:27:41,Peehu Mobile chilla,9519638583,FATEHPUR,UTTAR PRADESH,Ajay,Revisit,25.8265417,80.1558383,,,,
12/03/2025 14:58:23,Laddi telecom,9254111186,ROHTAK,HARYANA,Parvesh Kumar,Not Interested,28.8912262,76.5988968,,,1,
01/03/2025 15:14:38,Royal mobile,9300172444,RAISEN,MADHYA PRADESH,NIKHIL YADAV,Revisit,23.3298181,77.7947407,,,1,
01/03/2025 11:00:11,bhutbhavani mobile el,9723911997,BOTAB,GUJARAT,ALFAZ VADADARIYA,Revisit,22.3892735,71.7086475,,,,
01/03/2025 11:28:28,shyam el,9898540707,BOTAB,GUJARAT,ALFAZ VADADARIYA,Revisit,22.5771458,71.7684395,,,1,
15/03/2025 18:20:48,Kanha gopal mobile shop,8223838803,UJJAIN,MADHYA PRADESH,RAHUL PARMAR,Revisit,23.425949,76.2802231,,,1,
12/03/2025 14:59:27,Guruji telecom,9306487065,ROHTAK,HARYANA,Parvesh Kumar,Revisit,28.8912433,76.598875,,,,
22/03/2025 13:53:24,Raja mobile shop,8853440400,BARABANKI,Uttar Pradesh,Ranjeet Kumar,Revisit,27.096426,81.1077123,,,1,
07/03/2025 12:23:17,Hariom mobile Sultanpur,,RAISEN,MADHYA PRADESH,NIKHIL YADAV,Service Call,23.3273506,77.815152,,,,
01/03/2025 11:38:33,navrang mobile,9725408060,BOTAB,GUJARAT,ALFAZ VADADARIYA,Revisit,22.6936091,71.6745863,,,14,
01/03/2025 17:36:10,Sarik Mobile Lokaha,9673713784,MADHUBANI,BIHAR,Sajan Kumar,Revisit,26.44125,85.8113734,,,16,
03/03/2025 15:59:35,Radhey mobile point,9068940275,ETAH,UTTAR PRADESH,Vijay Kumar,Revisit,27.4917129,79.1720373,,,,
13/03/2025 12:39:19,Om telecom,9812212276,ROHTAK,HARYANA,Parvesh Kumar,Not Interested,28.8912645,76.5987275,,,0,
01/03/2025 13:31:00,mahakali mobile care,7043024804,AHMEDABAD,GUJARAT,ALFAZ VADADARIYA,Revisit,22.7221224,71.6461057,,,6,
03/03/2025 17:57:04,Sainik smart mobile shop,9058217205,ETAH,UTTAR PRADESH,Vijay Kumar,Revisit,27.4987279,79.1814627,,,16,
22/03/2025 17:12:30,Pratibha comunication,9984157448,BARABANKI,Uttar Pradesh,Ranjeet Kumar,Revisit,27.0962867,81.1124437,,,,
03/03/2025 11:42:12,Om Enterprises MADHWAPUR,9470271707,MADHUBANI,BIHAR,Sajan Kumar,Revisit,26.32904,86.1565188,,,,
03/03/2025 15:58:21,Boudh mobile shop,9627816587,ETAH,UTTAR PRADESH,Vijay Kumar,Revisit,27.4916412,79.1719441,,,10,
22/03/2025 15:08:55,Nitin mobile shop,9125007300,BARABANKI,Uttar Pradesh,Ranjeet Kumar,Revisit,27.0830726,81.133467,,,20,
11/03/2025 12:13:52,Metro mobile,7016508504,RAJKOT,GUJARAT,MALEK RAHIL RAFIKBHAI,Revisit,21.7391095,70.284817,,,,
10/03/2025 13:14:47,Lodhi brothers mobile naktara,,VIDISHA,Madhya Pradesh,NIKHIL YADAV,Revisit,23.2513545,77.9349233,,,,
08/03/2025 13:22:25,Payal mobile shop,9214790295,TONK,RAJASTHAN,Satyanatayan Songera,Service Call,26.1760267,75.788375,,,1,
22/03/2025 12:12:37,Shubh mobile center,,RAISEN,MADHYA PRADESH,NIKHIL YADAV,Revisit,23.3304671,77.7884548,,,,
24/03/2025 11:16:03,Mithun mobile shop,6392296574,BARABANKI,UTTAR PRADESH,Ranjeet Kumar,Revisit,27.0082442,81.1341262,,,1,
18/03/2025 12:16:25,Bharat mobile shop,7007659097,BARABANKI,UTTAR PRADESH,Ranjeet Kumar,Revisit,26.9705438,81.1232862,,,3,
08/03/2025 13:24:14,Divya telecom,9522004300,RAISEN,MADHYA PRADESH,NIKHIL YADAV,Revisit,23.3219444,77.7809705,,,1,
15/03/2025 18:04:47,Shekhar Tech Service Point,6389313231,HAMIRPUR,UTTAR PRADESH,Ajay,Revisit,25.8355767,80.1546033,,,2,
24/03/2025 11:56:21,Mariyam electronic & mobile,9935879977,BARABANKI,UTTAR PRADESH,Ranjeet Kumar,Revisit,26.928151,81.0884207,,,7,
19/03/2025 15:29:01,Nadeem mobile shop,9058618472,ETAH,UTTAR PRADESH,Vijay Kumar,Revisit,27.3705395,79.4355764,,,10,
01/03/2025 16:06:58,A one mobile,8871888975,TIKAMGARH,MADHYA PRADESH,Sanyog Shrivastava,Not Interested,24.9875657,79.0398388,,,,
03/03/2025 13:13:23,Janya Mobile,7376799865,HAMIRPUR,UTTAR PRADESH,Ajay,Revisit,25.8264183,80.1609383,,,,
04/03/2025 13:54:37,Atul mobile gallery,7869710227,RAISEN,MADHYA PRADESH,NIKHIL YADAV,Revisit,23.3218236,77.7809179,,,2,
25/03/2025 12:11:18,GMS,7570096166,BARABANKI,UTTAR PRADESH,Ranjeet Kumar,Revisit,26.9265859,81.1975064,,,9,
13/03/2025 13:34:39,Meena ji shop,,VIDISHA,Madhya Pradesh,NIKHIL YADAV,Revisit,23.3510846,77.847662,,,,
04/03/2025 10:27:33,Abhishek Mobile,8707023248,HAMIRPUR,UTTAR PRADESH,Ajay,Revisit,25.4773767,80.3356517,,,1,
01/03/2025 17:55:44,Banke bihari mobile Gallery,8982247924,GWALIOR,MADHYA PRADESH,Arpit Shrivastava,Not Interested,26.2407938,78.1627365,,,,
11/03/2025 20:08:01,Shyam ji mobile point,9792783737,JALAUN,UTTAR PRADESH,Rohit Kumar,Revisit,26.2871442,79.4328895,,,,
03/03/2025 10:25:12,Jitendar mobile saharghat,7258903206,DARBHANGA,BIHAR,Sagar Kumar Jha,Revisit,26.389435,85.9263233,,,36,
01/03/2025 14:49:53,Subh Computer And Mobile Shop,8400099210,HAMIRPUR,UTTAR PRADESH,Ajay,Revisit,25.8356574,80.154625,,,2,
25/03/2025 19:10:24,Era mobile,8081160156,BARABANKI,Uttar Pradesh,Ranjeet Kumar,Revisit,27.0929638,81.1194351,,,1,
10/03/2025 13:41:27,Siddhi Telecom Ghatampur,9919497297,HAMIRPUR,UTTAR PRADESH,Ajay,Revisit,26.1485297,80.1705431,,,,
17/03/2025 15:38:04,MS Telecom,9838585658,HAMIRPUR,UTTAR PRADESH,Ajay,Revisit,25.826418,80.1573899,,,,
04/03/2025 11:22:30,Gold mobile,7000935193,SHAJAPUR,MADHYA PRADESH,RAHUL PARMAR,Revisit,23.423875,76.2807916,,,1,
03/03/2025 15:23:40,Shri sai mobile gallary,9266114000,ROHTAK,HARYANA,Parvesh Kumar,Revisit,28.8934141,76.5988505,,,,
21/03/2025 10:53:35,VIP mobile shop,7905542571,BARABANKI,Uttar Pradesh,Ranjeet Kumar,Revisit,27.0057614,81.1499808,,,1,
13/03/2025 12:06:41,Netlink mobile upleta,9898394458,RAJKOT,GUJARAT,MALEK RAHIL RAFIKBHAI,Revisit,21.7411046,70.2828904,,,,
13/03/2025 12:08:01,Dwarkesh mobile upleta,9924240342,RAJKOT,GUJARAT,MALEK RAHIL RAFIKBHAI,Revisit,21.7411355,70.2828061,,,,
01/03/2025 15:19:04,Rajat mobile,8740040060,TONK,RAJASTHAN,Satyanatayan Songera,Service Call,26.1567131,75.7823414,,,15,
04/03/2025 19:38:58,Acchary mobile and electronic,9406877093,SHAJAPUR,MADHYA PRADESH,RAHUL PARMAR,Revisit,23.5404817,76.2039,,,,
01/03/2025 11:19:23,Shree ambhe mobile,8269550989,RAISEN,MADHYA PRADESH,NIKHIL YADAV,Revisit,23.3388847,77.8275349,,,0,
19/03/2025 13:25:46,Hanfi mobile,7383951818,RAJKOT,GUJARAT,MALEK RAHIL RAFIKBHAI,Revisit,21.741551,70.2840018,,,1,
10/03/2025 14:17:04,Balaji Mobile harpalpur,8800488107,CHHATARPUR,MADHYA PRADESH,Piyush Agrawal,Revisit,25.6409361,78.4655014,,,11,
10/03/2025 14:20:27,Agrawal mobile harpalpur,9893941453,CHHATARPUR,MADHYA PRADESH,Piyush Agrawal,Revisit,25.6403937,78.4658003,,,11,
10/03/2025 17:25:26,Mobile jain shop,9997196086,AGRA,UTTAR PRADESH,Nishant,Revisit,12.9091193,77.6326885,,,1,
04/03/2025 12:30:24,Mobile care begamganj,,RAISEN,MADHYA PRADESH,NIKHIL YADAV,Revisit,23.3390357,77.8277898,,,,
08/03/2025 13:25:30,Royal mobile 2 begamganj,,RAISEN,MADHYA PRADESH,NIKHIL YADAV,Revisit,23.3219541,77.7809335,,,,
12/03/2025 13:00:38,Shekhar Tech Service Point,6389313231,HAMIRPUR,UTTAR PRADESH,Ajay,Revisit,25.8276162,80.1583584,,,2,
03/03/2025 11:28:56,Raza enterprises pandoul,8210232014,DARBHANGA,BIHAR,Sagar Kumar Jha,Revisit,26.389855,85.9054067,,,,
12/03/2025 17:57:50,Tiwari mobile an computer,9893800260,RAISEN,MADHYA PRADESH,NIKHIL YADAV,Revisit,23.3299156,77.7974881,,,,
11/03/2025 12:14:45,One mobile,9714619880,RAJKOT,GUJARAT,MALEK RAHIL RAFIKBHAI,Revisit,21.7391095,70.284817,,,,
17/03/2025 11:13:29,Ravi Mobile Shop,9582844478,HAMIRPUR,UTTAR PRADESH,Ajay,Revisit,25.8316133,80.1576483,,,,
03/03/2025 11:43:38,Aryan mobile,7979747409,MADHUBANI,BIHAR,Sajan Kumar,Revisit,26.3230546,86.1654376,,,0,
05/03/2025 14:48:39,M2 mobile,9753530143,UJJAIN,MADHYA PRADESH,RAHUL PARMAR,Revisit,23.4239553,76.2809678,,,,
06/03/2025 12:44:36,Verma telicom,9140034750,FARRUKHABAD,UTTAR PRADESH,Vijay Kumar,Revisit,27.5569488,79.3371409,,,1,
18/03/2025 18:09:19,Shubh mobile,9993423011,RAISEN,MADHYA PRADESH,NIKHIL YADAV,Revisit,23.338699,77.8165749,,,1,
21/03/2025 12:17:15,J P telecom,9307194707,ALLAHABAD,Uttar Pradesh,Prabha Kant Pandey,Not Interested,25.2011318,82.1266736,,,2,
01/03/2025 14:04:27,Shri shyam mobile,8319043272,RAISEN,MADHYA PRADESH,NIKHIL YADAV,Revisit,23.3298108,77.7947255,,,,
06/03/2025 11:32:26,Tannushree sales,9529111131,TONK,RAJASTHAN,Satyanatayan Songera,Service Call,26.169066,75.8112131,,,,
04/03/2025 10:35:28,Sambhu Mobile Shop,9766944097,HAMIRPUR,UTTAR PRADESH,Ajay,Revisit,25.4773867,80.3356617,,,,
18/03/2025 12:26:56,Milan mobile upleta,9662339199,RAJKOT,GUJARAT,MALEK RAHIL RAFIKBHAI,Revisit,21.7429048,70.2771973,,,1,
03/03/2025 14:48:22,Radhe Radhe Mobile Shop,,HAMIRPUR,UTTAR PRADESH,Ajay,Revisit,25.8270383,80.1560467,,,,
01/03/2025 14:41:00,V M Mobile pandoul,9122223765,DARBHANGA,BIHAR,Sagar Kumar Jha,Revisit,26.5404567,85.8593017,,,,
11/03/2025 17:54:38,Sanu mobile,7890640169,MIRZAPUR,UTTAR PRADESH,Prabha Kant Pandey,Revisit,25.2034479,82.1123623,,,0,
10/03/2025 13:50:31,Janta Mobile Shop Ghatampur,8299404646,HAMIRPUR,UTTAR PRADESH,Ajay,Revisit,26.1489737,80.1667703,,,,
20/03/2025 20:56:19,Radhe Radhe mobile,9424935484,SATNA,MADHYA PRADESH,Vinay Kumar Gupta,Key Purchased,24.5553422,80.8406558,,,,
05/03/2025 12:17:10,Amar Communication,8307846717,KARNAL,HARYANA,Deepak KUmar,Revisit,29.6741339,76.9798225,,,1,
20/03/2025 12:32:57,Yashvi communication,7494960693,PANIPAT,HARYANA,Deepak KUmar,Revisit,29.6792373,76.9864557,,,,
04/03/2025 19:15:14,Shri sachkhand mobile shop,7000935788,RAISEN,MADHYA PRADESH,NIKHIL YADAV,Not Interested,23.3297401,77.7980124,,,,
05/03/2025 10:22:34,Sahu enterprises,7979857484,DARBHANGA,BIHAR,Sagar Kumar Jha,Revisit,26.3894597,85.9261496,,,,
05/03/2025 14:07:04,Shree Ram computer @mobile,9165346332,SHAJAPUR,MADHYA PRADESH,RAHUL PARMAR,Revisit,23.4255383,76.2837333,,,3,
06/03/2025 12:42:44,Barkiya mobile mohan bdodiya,9685572066,SHAJAPUR,MADHYA PRADESH,RAHUL PARMAR,Revisit,23.4241635,76.2807694,,,20,
01/03/2025 13:22:04,Sanjeet Mobile,9110134087,SITAMARHI,BIHAR,SAURABH KUMAR,Revisit,26.4820433,85.4604483,,,0,
21/03/2025 14:01:15,Shri Sai Baba treading,7376852401,MIRZAPUR,UTTAR PRADESH,Prabha Kant Pandey,Not Interested,25.1970442,82.1280323,,,0,
03/03/2025 17:47:56,Krishna mobile,9926291237,SHAJAPUR,MADHYA PRADESH,RAHUL PARMAR,Revisit,23.4239581,76.2809698,,,,
06/03/2025 12:42:37,Sunil mobile IMT,7223899747,RAISEN,MADHYA PRADESH,NIKHIL YADAV,Revisit,23.3622977,77.7668789,,,1,
24/03/2025 12:29:49,Ma Kushmanda Mobile Shop,9792594599,HAMIRPUR,UTTAR PRADESH,Ajay,Revisit,25.8329233,80.1565967,,,2,
01/03/2025 17:58:26,Amit mobile dulipatti jaynagar,9572341577,DARBHANGA,BIHAR,Sagar Kumar Jha,Revisit,26.3845362,85.8948291,,,,
03/03/2025 15:10:38,Bhavesh mobile simri,6201544785,DARBHANGA,BIHAR,Sagar Kumar Jha,Revisit,26.3667946,85.98309,,,,
05/03/2025 15:22:58,Shiv Vinayak Telecom Tarana,9691445646,UJJAIN,MADHYA PRADESH,RAHUL PARMAR,Revisit,23.4239501,76.280968,,,54,
06/03/2025 18:28:01,Ayudhi mobile store,9144998719,GWALIOR,MADHYA PRADESH,Arpit Shrivastava,Revisit,26.240735,78.162705,,,1,
01/03/2025 11:08:39,Bharat telecom,9936900136,PRATAPGARH,UTTAR PRADESH,Satyendra Sharma,Revisit,26.2348033,81.2462883,,,3,
05/03/2025 17:56:52,Mayur telecom,9728010001,ROHTAK,HARYANA,Parvesh Kumar,Revisit,28.8912673,76.5987184,,,6,
01/03/2025 15:59:03,Aman mobile geratganj,,RAISEN,MADHYA PRADESH,NIKHIL YADAV,Revisit,23.3302663,77.7956647,,,,
08/03/2025 16:09:52,Balaji Mobile,9219689356,HAMIRPUR,UTTAR PRADESH,Ajay,Revisit,25.9564083,80.14663,,,,
25/03/2025 12:20:30,GMS,7570096166,BARABANKI,UTTAR PRADESH,Ranjeet Kumar,Revisit,26.9266112,81.1975815,,,9,
03/03/2025 18:38:43,Amit mobile benipatti,9534303924,DARBHANGA,BIHAR,Sagar Kumar Jha,Revisit,26.3874456,85.8935506,,,0,
08/03/2025 12:28:04,Mobile Mart Rafaleshwar,9054968117,SURENDRA NAGAR,GUJARAT,HARDIK GOHIL,Not Interested,22.7723945,70.9073995,,,0,
07/03/2025 14:11:23,JMD mobile,8107522265,JHALAWAR,Rajasthan,KUNAL VYAS,Revisit,24.4159867,75.8320133,,,,
07/03/2025 21:49:15,Gori mobile,7000711698,GWALIOR,MADHYA PRADESH,Arpit Shrivastava,Not Interested,26.3237718,78.1128982,,,,
03/03/2025 12:59:42,Seefan Mobile Shop,,PRATAPGARH,UTTAR PRADESH,Satyendra Sharma,Revisit,25.9289922,82.0064611,,,,
01/03/2025 10:31:23,Shivam telicom,8709808259,DARBHANGA,BIHAR,Sagar Kumar Jha,Revisit,26.3893977,85.9262535,,,,
01/03/2025 12:11:22,Nav durga mobile,9113384052,DARBHANGA,BIHAR,Sagar Kumar Jha,Revisit,26.4351972,85.7348816,,,,
02/03/2025 12:10:11,Shivam mobile,8789328950,DARBHANGA,BIHAR,Sagar Kumar Jha,Revisit,26.4077479,85.9341276,,,,
01/03/2025 14:08:53,Sawariya telicom darbhanga,9905263557,DARBHANGA,BIHAR,Sagar Kumar Jha,Revisit,26.4307251,85.7723367,,,,
03/03/2025 11:57:19,N k mobile shop,8200607931,BHAVNAGAR,GUJARAT,DODIYA SALIMBHAI SULTANBHAI,Revisit,21.36845,71.6699917,,,24,
07/03/2025 12:24:09,Anand mobile and electronic,9993393104,RAISEN,MADHYA PRADESH,NIKHIL YADAV,Revisit,23.3273505,77.8151519,,,1,
03/03/2025 12:21:43,I  mobail  shop,9712356549,BHAVNAGAR,GUJARAT,DODIYA SALIMBHAI SULTANBHAI,Revisit,21.3721146,71.6704411,,,214,
11/03/2025 11:55:00,K m c mobile,7474177041,RAJKOT,GUJARAT,MALEK RAHIL RAFIKBHAI,Revisit,21.7403863,70.2845477,,,,
01/03/2025 14:06:58,TOP TEN MOBILE & computer,9162688418,SITAMARHI,BIHAR,SAURABH KUMAR,Revisit,26.4884029,85.447405,,,,
01/03/2025 19:03:02,YKGN MOBILE,8707699742,JALAUN,UTTAR PRADESH,Rohit Kumar,Revisit,26.2860085,79.4304129,,,,
01/03/2025 12:36:34,Mukhiya mobile tisi parsauni,8406050399,DARBHANGA,BIHAR,Sagar Kumar Jha,Revisit,26.4716319,85.7056424,,,,
19/03/2025 15:03:14,S R Marketing Hamirpur,8840110023,HAMIRPUR,UTTAR PRADESH,Ajay,Revisit,25.8356317,80.1545833,,,,
05/03/2025 14:43:23,Bajwa Telecom,9255551818,KARNAL,HARYANA,Deepak KUmar,Revisit,29.6741157,76.9798111,,,,
10/03/2025 14:29:17,Agrawal mobile nowgong,9074342352,CHHATARPUR,MADHYA PRADESH,Piyush Agrawal,Revisit,25.6368579,78.4704768,,,13,
03/03/2025 15:43:25,Music mobile,9924761212,BHAVNAGAR,GUJARAT,DODIYA SALIMBHAI SULTANBHAI,Revisit,21.5329567,71.5740783,,,,
06/03/2025 14:25:28,Nandani mobile,9414631729,TONK,RAJASTHAN,Satyanatayan Songera,Service Call,26.149348,75.7925376,,,0,
01/03/2025 13:09:11,Raju Mobile pupari darbhanga,8709196844,DARBHANGA,BIHAR,Sagar Kumar Jha,Revisit,26.4719736,85.7048265,,,,
01/03/2025 19:01:23,Nishad mobile,7393045159,JALAUN,UTTAR PRADESH,Rohit Kumar,Revisit,26.2860366,79.4303798,,,,
01/03/2025 14:05:36,Meena mobile,9826828413,RAISEN,MADHYA PRADESH,NIKHIL YADAV,Revisit,23.3298066,77.7947121,,,0,
04/03/2025 14:14:25,Dadda electronics maharajpur,9039850818,CHHATARPUR,MADHYA PRADESH,Piyush Agrawal,Revisit,24.9169576,79.5891343,,,,
04/03/2025 14:16:26,KK mobile gallery maharajpur,9131313126,CHHATARPUR,MADHYA PRADESH,Piyush Agrawal,Revisit,24.9169576,79.5891343,,,2,
11/03/2025 20:06:11,Shyam furniture and electronics,9838454616,JALAUN,UTTAR PRADESH,Rohit Kumar,Revisit,26.2871519,79.4328801,,,,
04/03/2025 18:46:31,Ami mobile,9925716761,AMRELI,GUJARAT,DODIYA SALIMBHAI SULTANBHAI,Revisit,21.3516561,72.0362862,,,,
21/03/2025 17:54:23,Royal mobile,8120202042,RAISEN,MADHYA PRADESH,NIKHIL YADAV,Revisit,23.3218822,77.7809574,,,,
05/03/2025 12:43:03,Yuva sels corporation,7020108243,AHMED NAGAR,MAHARASHTRA,Gautam Kacharu Nikam,Revisit,19.8182,74.2016883,,,1,
03/03/2025 13:14:24,Ronak mobile,7828774912,SHAJAPUR,MADHYA PRADESH,RAHUL PARMAR,Revisit,23.5043547,76.0789386,,,7,
04/03/2025 17:42:54,Welcome mobile,9998079121,AMRELI,GUJARAT,DODIYA SALIMBHAI SULTANBHAI,Revisit,21.3513117,72.0366867,,,,
06/03/2025 17:59:10,Shree shyam mobile,8696440005,TONK,RAJASTHAN,Satyanatayan Songera,Service Call,26.168446,75.8058088,,,,
01/03/2025 12:32:31,Mahadev mobile,,RAISEN,MADHYA PRADESH,NIKHIL YADAV,Revisit,23.3420182,77.82833,,,,
01/03/2025 13:40:31,Ved Mobile Shop,9170761676,HAMIRPUR,UTTAR PRADESH,Ajay,Revisit,25.9562133,80.14518,,,,
25/03/2025 16:37:52,Raghav Mobile,9648650126,HAMIRPUR,UTTAR PRADESH,Ajay,Revisit,25.6845767,80.1066217,,,,
08/03/2025 15:47:51,Hightech Mobile shop and electric,,PRATAPGARH,UTTAR PRADESH,Satyendra Sharma,Revisit,25.9113063,82.0004883,,,,
24/03/2025 18:36:37,Yashvi communication,7494960693,PANIPAT,HARYANA,Deepak KUmar,Revisit,29.5034339,76.7846341,,,,
21/03/2025 16:12:19,Mantasha Mobile,7080895758,HAMIRPUR,UTTAR PRADESH,Ajay,Revisit,25.686485,80.113105,,,3,
06/03/2025 18:29:35,Anash mobile,8878780425,GWALIOR,MADHYA PRADESH,Arpit Shrivastava,Revisit,26.240735,78.162705,,,36,
03/03/2025 14:44:52,Ok ganaral marketing co.,7726879994,TONK,RAJASTHAN,Satyanatayan Songera,Service Call,26.1739763,75.8057146,,,,
06/03/2025 13:16:59,Radhe mobile Loukha,8084281167,DARBHANGA,BIHAR,Sagar Kumar Jha,Revisit,26.2668096,85.9236184,,,,
22/03/2025 17:27:43,Ram raja mobile sarvai,8720023191,CHHATARPUR,MADHYA PRADESH,Piyush Agrawal,Revisit,25.1363609,80.0136768,,,13,
20/03/2025 18:19:41,Om communication,8014951000,PANIPAT,HARYANA,Deepak KUmar,Revisit,29.4100798,76.973832,,,35,
05/03/2025 14:45:05,JSS Telecom,9054691000,KARNAL,HARYANA,Deepak KUmar,Revisit,29.674112,76.9798285,,,71,
01/03/2025 11:25:59,Maa mobile shop,7607195448,KANPUR NAGAR,UTTAR PRADESH,Ashish Sharma,Revisit,26.411595,80.3330809,,,3,
01/03/2025 16:20:01,Zam Zam Mobile,7860580921,HAMIRPUR,UTTAR PRADESH,Ajay,Revisit,25.8356225,80.1546506,,,,
07/03/2025 20:51:27,Jay maa kali,9669663102,GWALIOR,MADHYA PRADESH,Arpit Shrivastava,Not Interested,26.2407663,78.1626773,,,1,
01/03/2025 10:52:17,Pankaja,,BEED,MAHARASHTRA,Ganesh Munde,App Install,18.849071,76.531599,,,,
20/03/2025 15:11:33,The mobile point,9978047822,KACHCHH,GUJARAT,LUHAR MAHMADHANIF ABDULLAH,Key Purchased,23.13402,68.92635,,,69,
01/03/2025 20:09:58,Amit Telecom,8299733234,HAMIRPUR,UTTAR PRADESH,Ajay,Revisit,25.8356103,80.1546563,,,0,
04/03/2025 14:53:18,Gurukripa mobile,,VIDISHA,Madhya Pradesh,NIKHIL YADAV,Revisit,23.3302211,77.7956947,,,,
05/03/2025 13:19:27,Rishabha Enterprises,9828359843,TONK,RAJASTHAN,Satyanatayan Songera,Service Call,26.2934138,75.3736539,,,1,
08/03/2025 12:11:42,R K mobile,9034357750,ROHTAK,HARYANA,Parvesh Kumar,Service Call,28.8798169,76.5911824,,,29,
25/03/2025 16:08:39,Tripathi Traders,8707815874,FATEHPUR,UTTAR PRADESH,Ajay,Revisit,25.6840864,80.1074651,,,,
05/03/2025 13:29:29,M k mobile,9214012653,TONK,RAJASTHAN,Satyanatayan Songera,Service Call,26.2933568,75.3736803,,,,
04/03/2025 19:14:45,Saraswati mobile,7771809777,RAISEN,MADHYA PRADESH,NIKHIL YADAV,Service Call,23.3296203,77.7981936,,,17,
05/03/2025 14:36:14,Shivkrupa electronics,8308999444,BULDHANA,MAHARASHTRA,Mohammad Irshad,Revisit,20.7070521,77.013321,,,,
05/03/2025 17:55:03,Shree shyam ji mobile point,8607818019,ROHTAK,HARYANA,Parvesh Kumar,Revisit,28.8912547,76.5987464,,,14,
01/03/2025 18:51:28,Raj Kumar yadav,9695913307,PRATAPGARH,UTTAR PRADESH,Satyendra Sharma,Revisit,26.2127428,81.2439594,,,0,
01/03/2025 10:46:38,Arvind mobile shop,8808900174,RAEBARELI,UTTAR PRADESH,Zuhaib Khan,Revisit,26.23962,81.2353115,,,1,
05/03/2025 17:17:59,Mobile Guru,9252666333,TONK,RAJASTHAN,Satyanatayan Songera,Service Call,26.2927635,75.375199,,,,
05/03/2025 14:37:23,Shiva mobile,9021215821,BULDHANA,MAHARASHTRA,Mohammad Irshad,Revisit,20.7070525,77.013321,,,,
05/03/2025 13:58:19,S K Communication,9828442161,TONK,RAJASTHAN,Satyanatayan Songera,Service Call,26.2929056,75.3743828,,,,
05/03/2025 14:34:57,Sai mobile shopy,9373321936,BULDHANA,MAHARASHTRA,Mohammad Irshad,Revisit,20.7070593,77.0133343,,,,
04/03/2025 18:19:10,Fantastic telecom,9140447744,PRATAPGARH,UTTAR PRADESH,Satyendra Sharma,Revisit,25.9144409,81.9985589,,,1,
03/03/2025 12:27:48,Agrahari Mobile Shop,,FAIZABAD,UTTAR PRADESH,Suvipra Upadhyay,Revisit,26.4054714,82.5417491,,,,
20/03/2025 17:48:07,Shiv krapa Mobile,8821971143,BHOPAL,MADHYA PRADESH,AMAN SHRIVASTAVA,Revisit,23.3052429,77.414852,,,,
07/03/2025 19:58:03,Muskan enterprises,7869023855,BHOPAL,MADHYA PRADESH,AMAN SHRIVASTAVA,Revisit,23.3051733,77.4149389,,,196,
24/03/2025 15:22:45,Aakash collection,9589582958,BHOPAL,MADHYA PRADESH,AMAN SHRIVASTAVA,Revisit,23.3031811,77.3946443,,,,
01/03/2025 11:37:29,Poinear Mobile shop,8896637157,RAEBARELI,UTTAR PRADESH,Zuhaib Khan,Revisit,26.2310049,81.2364511,,,,
06/03/2025 13:53:34,Vivek mobile,8269114099,GWALIOR,MADHYA PRADESH,Arpit Shrivastava,Revisit,26.6325473,78.1451338,,,,
05/03/2025 14:17:04,Anil mobile point,8107101067,TONK,RAJASTHAN,Satyanatayan Songera,Service Call,26.2935326,75.3753704,,,,
01/03/2025 15:17:22,Yash enterprises,7828665957,BHOPAL,MADHYA PRADESH,AMAN SHRIVASTAVA,Revisit,23.3051509,77.4147588,,,1,
08/03/2025 16:54:23,Yogesh mobile,9752807691,BHOPAL,MADHYA PRADESH,AMAN SHRIVASTAVA,Revisit,23.305037,77.4146696,,,2,
06/03/2025 19:02:29,Time centre jaynagar,9097411829,DARBHANGA,BIHAR,Sagar Kumar Jha,Revisit,26.3719306,85.9588199,,,,
05/03/2025 15:21:46,Parisha mobile donar darbhanga,9304826263,DARBHANGA,BIHAR,Sagar Kumar Jha,Revisit,26.4047194,86.0365473,,,,
01/03/2025 16:19:39,Govind mobile,6350339933,TONK,RAJASTHAN,Satyanatayan Songera,Service Call,26.1568339,75.7822217,,,,
01/03/2025 12:31:15,S.R trading company,9450378935,KANPUR DEHAT,UTTAR PRADESH,Ashish Sharma,Not Interested,26.4189991,80.3188685,,,1,
01/03/2025 15:14:42,Rahul mobile,9680974714,TONK,RAJASTHAN,Satyanatayan Songera,Service Call,26.1605779,75.7858176,,,,
07/03/2025 12:05:56,Maharaja mobile,9033172704,RAJKOT,GUJARAT,MALEK RAHIL RAFIKBHAI,Revisit,21.7405047,70.2862345,,,,
07/03/2025 11:59:09,Noor mobile,9106230050,RAJKOT,GUJARAT,MALEK RAHIL RAFIKBHAI,Revisit,21.7406832,70.2865049,,,0,
01/03/2025 16:04:20,Shiv murat idfc,7905001758,PRATAPGARH,Uttar Pradesh,Satyendra Sharma,Revisit,26.2326204,81.2493983,,,,
05/03/2025 13:14:01,Jay janrdhan mobile shop,7350348000,AHMED NAGAR,MAHARASHTRA,Gautam Kacharu Nikam,Revisit,19.8185699,74.2029378,,,,
07/03/2025 11:43:31,Raj mobile,9898188884,RAJKOT,GUJARAT,MALEK RAHIL RAFIKBHAI,Revisit,21.7406603,70.286543,,,,
07/03/2025 19:40:00,Baba electricals vichile,8303192886,JALAUN,UTTAR PRADESH,Rohit Kumar,Revisit,26.2867874,79.4323323,,,1,
01/03/2025 15:16:21,Sharma Mobile,8965862174,BHOPAL,MADHYA PRADESH,AMAN SHRIVASTAVA,Revisit,23.3051618,77.4147543,,,35,
05/03/2025 14:59:30,Aasish Communication,7404206556,KARNAL,HARYANA,Deepak KUmar,Revisit,29.6741159,76.9798022,,,,
06/03/2025 11:37:46,Time centre jaynagar,9097411829,DARBHANGA,BIHAR,Sagar Kumar Jha,Revisit,26.3493267,85.93912,,,,
03/03/2025 11:11:10,R.G.Amma Mobile,,PRATAPGARH,UTTAR PRADESH,Satyendra Sharma,Revisit,26.0802599,81.8806508,,,,
01/03/2025 15:46:38,Yadav telecom,9784450335,TONK,RAJASTHAN,Satyanatayan Songera,Service Call,26.1541744,75.7794696,,,,
03/03/2025 13:49:27,CoLaba mobile shop,8707448404,RAEBARELI,UTTAR PRADESH,Zuhaib Khan,Revisit,26.2396762,81.2352744,,,,
01/03/2025 12:33:39,Chaudhary Mobile Shop,,KHERI,UTTAR PRADESH,Suvipra Upadhyay,Revisit,26.4018118,82.5440577,,,,
01/03/2025 15:42:55,Guruprupa mobile shop Ardhapur,9011227498,NANDED,MAHARASHTRA,Sandeep Telange,Revisit,19.1681298,77.3042274,,,1,
05/03/2025 14:30:01,Somesh communication,7620231444,BULDHANA,MAHARASHTRA,Mohammad Irshad,Revisit,20.7070199,77.0134153,,,1,
06/03/2025 10:18:13,Pooja mobile Raiyam malangiya,7004199613,DARBHANGA,BIHAR,Sagar Kumar Jha,Revisit,26.3894354,85.926293,,,,
07/03/2025 11:32:23,Super mobile upleta,8000604446,RAJKOT,GUJARAT,MALEK RAHIL RAFIKBHAI,Revisit,21.7404682,70.2862092,,,0,
05/03/2025 15:00:26,Meera mobile,9617036422,RAJGARH,MADHYA PRADESH,RAHUL PARMAR,Revisit,23.4239532,76.2809672,,,,
06/03/2025 19:37:35,Bm Mobile,8120197902,SHAJAPUR,MADHYA PRADESH,RAHUL PARMAR,Revisit,23.4275983,76.2956867,,,10,
03/03/2025 16:03:38,Sadguru Mobile Martala,9545407098,NANDED,MAHARASHTRA,Sandeep Telange,Revisit,19.1708816,77.3063167,,,34,
03/03/2025 17:47:03,Dev kripa mobile,8823835286,SHAJAPUR,MADHYA PRADESH,RAHUL PARMAR,Revisit,23.4239558,76.2809579,,,,
01/03/2025 12:58:18,Laxmi telicom,9926857440,AGAR MALWA,MADHYA PRADESH,RAHUL PARMAR,Revisit,23.4196381,76.2880429,,,,
05/03/2025 14:32:37,Sunil Electronics and Mobile,9765232992,BULDHANA,MAHARASHTRA,Mohammad Irshad,Revisit,20.7070199,77.0134153,,,,
01/03/2025 14:44:53,Pritam Singh and sons,9415200642,PRATAPGARH,UTTAR PRADESH,Satyendra Sharma,Revisit,26.2326622,81.2495001,,,39,
05/03/2025 16:53:28,The mobile plaza,,FARRUKHABAD,UTTAR PRADESH,Vijay Kumar,Revisit,27.543375,79.326105,,,,
03/03/2025 16:14:30,R R world,8685868582,JHAJJAR,HARYANA,Parvesh Kumar,Not Interested,28.8912717,76.5988183,,,,
24/03/2025 15:22:23,Seema Mobile,9893362852,BHOPAL,MADHYA PRADESH,AMAN SHRIVASTAVA,Revisit,23.3031811,77.3946443,,,7,
10/03/2025 11:35:07,Parkash electronics,9812794848,JHAJJAR,HARYANA,Parvesh Kumar,Not Interested,28.8912346,76.598795,,,,
05/03/2025 12:51:57,Sai sapta mobile shop rahta,8208221130,AHMED NAGAR,MAHARASHTRA,Gautam Kacharu Nikam,Revisit,19.8182,74.2016883,,,,
01/03/2025 10:26:48,Harsh mobile,6202677126,SITAMARHI,BIHAR,SAURABH KUMAR,Revisit,26.5926619,85.4914599,,,1,
05/03/2025 10:46:03,Muskan enterprises,7869023855,BHOPAL,MADHYA PRADESH,AMAN SHRIVASTAVA,Revisit,23.3050903,77.414717,,,196,
04/03/2025 13:12:47,Arihant Mobile,9302088701,BHOPAL,MADHYA PRADESH,AMAN SHRIVASTAVA,Revisit,23.2993781,77.3450214,,,1,
03/03/2025 12:58:10,Satyam techno world,7737882393,TONK,RAJASTHAN,Satyanatayan Songera,Service Call,26.1736797,75.806095,,,,
04/03/2025 13:06:13,Samsung panchshila shop,9422188881,AHMED NAGAR,MAHARASHTRA,Gautam Kacharu Nikam,Revisit,19.7201032,74.1358917,,,,
09/03/2025 16:51:30,Laxmi mobile kaluwahi,9891715194,DARBHANGA,BIHAR,Sagar Kumar Jha,Revisit,26.38945,85.9263017,,,,
03/03/2025 18:04:49,Veer Mobile Shop,8127979726,HAMIRPUR,UTTAR PRADESH,Ajay,Revisit,25.8262055,80.1608752,,,10,
04/03/2025 13:28:03,S S mobile shop,8956181224,AHMED NAGAR,MAHARASHTRA,Gautam Kacharu Nikam,Revisit,19.7202243,74.1361583,,,0,
10/03/2025 13:50:14,J d mobile,8140050044,RAJKOT,GUJARAT,MALEK RAHIL RAFIKBHAI,Revisit,22.1745878,71.6581825,,,,
04/03/2025 15:26:10,Shankar Mobile Shop,9648005756,HAMIRPUR,UTTAR PRADESH,Ajay,Revisit,25.8303017,80.1608983,,,,
08/03/2025 11:54:36,Madhuvan mobile,7339931212,RAJKOT,GUJARAT,MALEK RAHIL RAFIKBHAI,Revisit,21.7431968,70.2880849,,,,
04/03/2025 11:14:51,Shiva Mobile Center,,PRATAPGARH,UTTAR PRADESH,Satyendra Sharma,Not Interested,26.2316537,81.2396788,,,,
03/03/2025 11:46:33,ABS ENTERPRISES,8307476135,KARNAL,HARYANA,Deepak KUmar,Revisit,29.4008021,76.9902709,,,0,
07/03/2025 11:28:48,City mobile tawar darbhanga,8434800592,DARBHANGA,BIHAR,Sagar Kumar Jha,Revisit,26.3623619,86.0097655,,,,
05/03/2025 12:18:00,Shiva mobile Shop,,PRATAPGARH,UTTAR PRADESH,Satyendra Sharma,Revisit,25.9171477,81.9998612,,,,
06/03/2025 19:09:42,Ganesh telecom,,PRATAPGARH,UTTAR PRADESH,Satyendra Sharma,Revisit,25.9120883,82.0009439,,,,
07/03/2025 10:25:33,The mobile jection tawar darbhanga,8409357012,DARBHANGA,BIHAR,Sagar Kumar Jha,Revisit,26.3894689,85.9262834,,,,
11/03/2025 11:18:39,Chisti mobile upleta,9898979597,RAJKOT,GUJARAT,MALEK RAHIL RAFIKBHAI,Revisit,21.7402041,70.2845267,,,12,
04/03/2025 13:34:50,Balagi mobile,7880052100,SHAJAPUR,MADHYA PRADESH,RAHUL PARMAR,Revisit,23.4403489,76.2779523,,,4,
03/03/2025 14:33:50,Shree sai mobile,9907739163,UJJAIN,MADHYA PRADESH,RAHUL PARMAR,Revisit,23.5205643,76.0831792,,,,
05/03/2025 17:32:19,Vikas Communication,9996660699,KARNAL,HARYANA,Deepak KUmar,Revisit,29.5527807,76.878119,,,,
24/03/2025 20:25:39,Devadiya mobile badamalhra,8982403240,CHHATARPUR,MADHYA PRADESH,Piyush Agrawal,Revisit,24.9169744,79.5891982,,,11,
01/03/2025 12:26:27,Mobile galaxy shadab chhatarpur,8827742149,CHHATARPUR,MADHYA PRADESH,Piyush Agrawal,Revisit,24.9171121,79.5891695,,,9,
01/03/2025 15:41:49,Maitri mobile shop tamsa,9689192193,NANDED,MAHARASHTRA,Sandeep Telange,Revisit,19.1681385,77.304245,,,,
01/03/2025 12:01:07,Gurudev Enterprises,8104509099,TONK,RAJASTHAN,Satyanatayan Songera,Service Call,26.1727576,75.7944517,,,,
05/03/2025 11:19:53,Atul mobiles Moll,9931080072,DARBHANGA,BIHAR,Sagar Kumar Jha,Revisit,26.4037898,85.9274732,,,,
05/03/2025 15:01:28,AJ Mobile Repair,9671627321,KARNAL,HARYANA,Deepak KUmar,Revisit,29.6741032,76.9797791,,,,
06/03/2025 12:36:27,Vishal mobile plaza,9115088384,FARRUKHABAD,UTTAR PRADESH,Vijay Kumar,Revisit,27.5576457,79.3368045,,,14,
01/03/2025 17:11:18,Gourav mobile Sultanpur,,RAISEN,MADHYA PRADESH,NIKHIL YADAV,Revisit,23.3316769,77.7955511,,,,
04/03/2025 11:13:46,Love khush mobile,,VIDISHA,Madhya Pradesh,NIKHIL YADAV,Revisit,23.339358,77.8281404,,,,
04/03/2025 10:49:15,New Sambhu Mobile Shop,9936806042,HAMIRPUR,UTTAR PRADESH,Ajay,Revisit,25.4774133,80.33565,,,,
12/03/2025 13:31:19,Seema Mobile,9893362852,BHOPAL,MADHYA PRADESH,AMAN SHRIVASTAVA,Revisit,23.2993415,77.345003,,,7,
23/03/2025 19:28:18,Rahul electronics,8827666669,BHOPAL,MADHYA PRADESH,AMAN SHRIVASTAVA,Revisit,23.3054966,77.415366,,,0,
07/03/2025 16:13:04,Shidhi mobile tawar darbhanga,8789897797,DARBHANGA,BIHAR,Sagar Kumar Jha,Revisit,26.2394033,85.9048567,,,,
07/03/2025 11:40:51,Prince Mobile Shop Lalgopalganj,,PRATAPGARH,UTTAR PRADESH,Satyendra Sharma,Revisit,26.26239,81.518845,,,,
17/03/2025 18:50:47,S A communication,9970723432,AHMED NAGAR,MAHARASHTRA,Gautam Kacharu Nikam,Revisit,19.8192745,74.2040444,,,1,
07/03/2025 11:34:40,Jaiswal Telecom Lalgopalganj,,PRATAPGARH,UTTAR PRADESH,Satyendra Sharma,Revisit,26.2585792,81.4800251,,,,
06/03/2025 14:41:01,Tha mobile jhon,8109847775,SHAJAPUR,MADHYA PRADESH,RAHUL PARMAR,Revisit,23.2619527,76.1474749,,,,
04/03/2025 14:40:19,Pawan telicom fkd,8299443480,FARRUKHABAD,UTTAR PRADESH,Vijay Kumar,Revisit,27.4054338,79.5277455,,,0,
01/03/2025 15:16:56,Aakash collection,9589582958,BHOPAL,MADHYA PRADESH,AMAN SHRIVASTAVA,Revisit,23.3051549,77.4147548,,,,
04/03/2025 15:34:21,Swarajya mobile,9766125024,BULDHANA,MAHARASHTRA,Mohammad Irshad,Revisit,21.0974986,77.0546273,,,,
06/03/2025 16:19:49,Shree astVinayak mobile,9302543773,SHAJAPUR,MADHYA PRADESH,RAHUL PARMAR,Revisit,23.423985,76.2807467,,,0,
01/03/2025 11:58:15,Shivam Mobile shop,7697244840,SATNA,MADHYA PRADESH,Vinay Kumar Gupta,Revisit,24.5641914,80.830502,,,1,
01/03/2025 12:01:10,Ankit mo.,9981703743,SATNA,MADHYA PRADESH,Vinay Kumar Gupta,Revisit,24.5644251,80.8305432,,,14,
04/03/2025 18:28:03,Mobile wala,6261190648,BHOPAL,MADHYA PRADESH,AMAN SHRIVASTAVA,Revisit,23.3056265,77.4155173,,,47,
11/03/2025 10:41:49,Atul mobile gallery,7869710227,RAISEN,MADHYA PRADESH,NIKHIL YADAV,Revisit,23.3392174,77.8284058,,,2,
03/03/2025 14:17:50,Aanand mobile store,7974549254,GWALIOR,MADHYA PRADESH,Arpit Shrivastava,App Install,26.24072,78.162735,,,0,
01/03/2025 13:33:07,navrang mobile,9725408060,BOTAB,GUJARAT,ALFAZ VADADARIYA,Service Call,22.7220505,71.6463989,,,14,
08/03/2025 11:28:52,Choice mobile pupari darbhanga,8102431959,DARBHANGA,BIHAR,Sagar Kumar Jha,Revisit,26.3846895,85.8946708,,,,
01/03/2025 15:51:53,bhutbhavani mobile el,9723911997,BOTAB,GUJARAT,ALFAZ VADADARIYA,Revisit,22.7353189,71.6368436,,,,
10/03/2025 10:34:11,Parisha mobile donar darbhanga,9304826263,DARBHANGA,BIHAR,Sagar Kumar Jha,Revisit,26.38944,85.9263233,,,,
01/03/2025 18:15:24,Jai Vankhandi communication,9672633392,TONK,RAJASTHAN,Satyanatayan Songera,Service Call,26.168692,75.8054233,,,,
01/03/2025 15:34:35,New alam mo.,9300888788,SATNA,MADHYA PRADESH,Vinay Kumar Gupta,Revisit,24.5597439,80.8571205,,,,
01/03/2025 10:44:57,Aadi mobile,8109085836,DAMOH,MADHYA PRADESH,Zaki Khan,Revisit,23.8397636,79.4442745,,,4,
05/03/2025 12:31:02,Raj wach and mobile,9926072786,SHAJAPUR,MADHYA PRADESH,RAHUL PARMAR,Revisit,23.42402,76.2806784,,,,
05/03/2025 17:31:26,Pal brother's enterprises,9812517925,PANIPAT,HARYANA,Deepak KUmar,Revisit,29.5540688,76.8795671,,,29,
06/03/2025 12:51:39,Aaa mobile,9974900955,RAJKOT,GUJARAT,MALEK RAHIL RAFIKBHAI,Revisit,21.7406779,70.284915,,,,
21/03/2025 17:14:54,Sahil Mobile maudaha,9795284205,HAMIRPUR,UTTAR PRADESH,Ajay,Key Purchased,25.6836511,80.1088513,,,26,
01/03/2025 15:52:56,omkar mobile paliyad,8000532423,BHAVNAGAR,GUJARAT,ALFAZ VADADARIYA,Revisit,22.7353117,71.6368884,,,,
01/03/2025 13:05:31,Happy mobile,8780797081,BHAVNAGAR,Gujarat,DODIYA SALIMBHAI SULTANBHAI,Revisit,21.7032717,71.961785,,,,
10/03/2025 11:54:43,Pankaj mobile Raiyam malangiya,7739636419,DARBHANGA,BIHAR,Sagar Kumar Jha,Revisit,26.3071353,85.9561577,,,,
01/03/2025 10:53:13,Shiv mobile,9374232323,BHAVNAGAR,Gujarat,DODIYA SALIMBHAI SULTANBHAI,Revisit,21.5824683,71.9761883,,,7,
05/03/2025 11:15:03,Netlink mobile upleta,9898394458,RAJKOT,GUJARAT,MALEK RAHIL RAFIKBHAI,Revisit,21.7411304,70.2828769,,,,
10/03/2025 13:38:51,Shree kailash mobile darbhanga,6204879229,DARBHANGA,BIHAR,Sagar Kumar Jha,Revisit,26.1692667,85.890575,,,,
08/03/2025 13:37:27,Sai Ram mobile shop,7057090955,AHMED NAGAR,MAHARASHTRA,Gautam Kacharu Nikam,Revisit,19.8187,74.20445,,,,
05/03/2025 18:45:19,Lodhi mobile,,VIDISHA,Madhya Pradesh,NIKHIL YADAV,Revisit,23.3322479,77.8204674,,,,
01/03/2025 13:03:53,Shiwa mobile shop nanded,9011122236,NANDED,MAHARASHTRA,Sandeep Telange,Revisit,19.1681936,77.3042646,,,,
01/03/2025 19:38:35,Bansal mobile gallery,9758161617,HARIDWAR,UTTAR PRADESH,NAVNEET KUMAR,Revisit,29.9457127,77.5350005,,,1,
03/03/2025 19:21:59,Sangam mobile,9977886691,SHAJAPUR,MADHYA PRADESH,RAHUL PARMAR,Revisit,23.4177983,76.2978317,,,0,
24/03/2025 12:48:27,Yogesh mobile,9752807691,BHOPAL,MADHYA PRADESH,AMAN SHRIVASTAVA,Revisit,23.3026747,77.3644231,,,2,
03/03/2025 11:45:45,Kapil enterprises,9730928498,BULDHANA,MAHARASHTRA,Mohammad Irshad,Revisit,20.7070007,77.0133835,,,,
01/03/2025 20:04:28,Siddhi mobile,8982120750,DAMOH,MADHYA PRADESH,Zaki Khan,Revisit,23.8397931,79.4443365,,,,
03/03/2025 13:50:42,A 2 Z Mobile Shop,8299522374,RAEBARELI,UTTAR PRADESH,Zuhaib Khan,Revisit,26.2396756,81.2352767,,,,
01/03/2025 13:17:11,Shi kushan,9925449422,BHAVNAGAR,Gujarat,DODIYA SALIMBHAI SULTANBHAI,Revisit,21.70334,71.961835,,,10,
05/03/2025 12:08:10,Shri krishna Telecom,9369799545,KANPUR NAGAR,UTTAR PRADESH,Ashish Sharma,Not Interested,26.3995427,80.3767248,,,1,
10/03/2025 17:37:26,Ganesh enterprises,8053700200,JHAJJAR,HARYANA,Parvesh Kumar,Revisit,28.8912785,76.5988192,,,1,
03/03/2025 13:15:28,Rahul padiyar chidawad,9977517314,DEWAS,MADHYA PRADESH,RAHUL PARMAR,Revisit,23.5043975,76.0789215,,,,
01/03/2025 19:37:09,A K mobile,7078888881,HARIDWAR,UTTAR PRADESH,NAVNEET KUMAR,Revisit,29.9457127,77.5350005,,,1,
01/03/2025 14:21:12,Hammad Telecom,8445052333,HARIDWAR,UTTAR PRADESH,NAVNEET KUMAR,Revisit,29.9308273,77.5306656,,,,
03/03/2025 19:20:00,Choudhary mobile chidawad,9300434444,DEWAS,MADHYA PRADESH,RAHUL PARMAR,Revisit,23.4178067,76.2978217,,,1,
01/03/2025 15:37:45,Agrwal mo,9926901080,SATNA,MADHYA PRADESH,Vinay Kumar Gupta,Revisit,24.5597225,80.8571185,,,136,
01/03/2025 15:40:27,Arihant mo,7627038533,SATNA,MADHYA PRADESH,Vinay Kumar Gupta,Revisit,24.5597813,80.8571902,,,2,
08/03/2025 16:01:28,Shivhare mobile vds,6263385208,RAISEN,MADHYA PRADESH,NIKHIL YADAV,Revisit,23.3399423,77.8287613,,,1,
01/03/2025 15:44:43,Mobli chiti store,9752694202,SATNA,MADHYA PRADESH,Vinay Kumar Gupta,Revisit,24.5597128,80.8571311,,,10,
01/03/2025 13:04:54,Swami mobile shop nanded,9766758415,NANDED,MAHARASHTRA,Sandeep Telange,Revisit,19.1681542,77.3042385,,,,
10/03/2025 18:02:31,Sumit telecom,7897022867,ALLAHABAD,UTTAR PRADESH,Prabha Kant Pandey,Not Interested,25.2043367,82.1290303,,,7,
01/03/2025 13:05:50,Indian mobile shop nanded,9922695885,NANDED,MAHARASHTRA,Sandeep Telange,Revisit,19.1682271,77.3042661,,,,
18/03/2025 12:27:18,Shree krishna collection salamatpur,8818813311,VIDISHA,Madhya Pradesh,NIKHIL YADAV,Revisit,23.329336,77.7956514,,,,
21/03/2025 12:02:54,Kamble mobile shop,9004744767,AHMED NAGAR,MAHARASHTRA,Gautam Kacharu Nikam,Revisit,19.8161783,74.2114933,,,1,
01/03/2025 12:36:03,Balaji mobile chhatarpur,9425140877,CHHATARPUR,MADHYA PRADESH,Piyush Agrawal,Revisit,24.9171464,79.5891685,,,14,
10/03/2025 12:59:14,Mobile plaza,9934078796,DARBHANGA,BIHAR,Sagar Kumar Jha,Revisit,26.2534217,85.91165,,,,
08/03/2025 13:33:17,Kohinur mobile shop,9767927110,AHMED NAGAR,MAHARASHTRA,Gautam Kacharu Nikam,Revisit,19.8186817,74.2044433,,,1,
07/03/2025 12:44:19,Morya mobile shop,9730303597,AHMED NAGAR,MAHARASHTRA,Gautam Kacharu Nikam,Revisit,19.6948233,74.2982167,,,28,
01/03/2025 13:08:40,Rudra Communication,7024407742,DAMOH,Madhya Pradesh,Zaki Khan,Revisit,23.9943639,79.6834005,,,23,
24/03/2025 11:22:56,Rahul electronics,8827666669,BHOPAL,MADHYA PRADESH,AMAN SHRIVASTAVA,Revisit,23.3050949,77.4146755,,,0,
01/03/2025 15:41:23,Pawade mobile shop nanded,9922823598,NANDED,MAHARASHTRA,Sandeep Telange,Revisit,19.1681385,77.304245,,,,
01/03/2025 15:42:28,Pawade mobile shop nanded,9922823598,NANDED,MAHARASHTRA,Sandeep Telange,Revisit,19.1681385,77.304245,,,,
06/03/2025 10:24:16,JAI gurudev mobile vds,6264776520,RAISEN,MADHYA PRADESH,NIKHIL YADAV,Revisit,23.3391104,77.8283477,,,,
05/03/2025 12:39:06,Mahaklkshmi mobile shop,9552901586,AHMED NAGAR,MAHARASHTRA,Gautam Kacharu Nikam,Revisit,19.8182,74.2016883,,,13,
05/03/2025 15:26:18,Mauli mobile shop,9881512281,AHMED NAGAR,MAHARASHTRA,Gautam Kacharu Nikam,Revisit,19.8195367,74.20403,,,13,
11/03/2025 16:42:13,Bharti mobile shop,9939527310,DARBHANGA,BIHAR,Sagar Kumar Jha,Revisit,26.2954848,85.9481687,,,,
05/03/2025 15:27:30,Sai mobile shop,7397970999,AHMED NAGAR,MAHARASHTRA,Gautam Kacharu Nikam,Revisit,19.819545,74.2039783,,,1,
03/03/2025 16:49:28,Siddhi mobile,8982120750,DAMOH,MADHYA PRADESH,Zaki Khan,Revisit,23.8397972,79.4443066,,,,
01/03/2025 11:45:16,Pawar mobile,9301851208,SEHORE,MADHYA PRADESH,Rahul Goswami,Revisit,23.206694,77.0926891,,,14,
01/03/2025 11:56:27,Asad Communication,9760448113,SAHARANPUR,UTTAR PRADESH,NAVNEET KUMAR,Service Call,29.9457813,77.5349379,,,73,
08/03/2025 15:19:54,aman telecom,7800121244,PRATAPGARH,UTTAR PRADESH,Satyendra Sharma,Revisit,25.9117733,82.000722,,,7,
19/03/2025 19:15:09,Sameer mobile,7693931671,GWALIOR,MADHYA PRADESH,Arpit Shrivastava,Not Interested,26.24151,78.1630883,,,,
03/03/2025 15:23:53,Arnav mo,9826620982,SATNA,MADHYA PRADESH,Vinay Kumar Gupta,Revisit,24.5588103,80.830334,,,16,
01/03/2025 19:00:10,Shree shyam electronic,8319918118,SHAJAPUR,MADHYA PRADESH,RAHUL PARMAR,Revisit,23.4324467,76.2527717,,,10,
11/03/2025 12:59:08,Mulakat mobile basaith,7294948138,DARBHANGA,BIHAR,Sagar Kumar Jha,Revisit,26.186635,85.9015283,,,,
01/03/2025 13:41:58,Mobile galaxy Chhatarpur,9981764776,CHHATARPUR,MADHYA PRADESH,Piyush Agrawal,Revisit,24.9173203,79.5890115,,,54,
11/03/2025 17:46:22,Mobile galaxy shadab chhatarpur,8827742149,CHHATARPUR,MADHYA PRADESH,Piyush Agrawal,Revisit,24.9170271,79.5891479,,,9,
01/03/2025 13:43:55,Dhanush dhari mobile Chhatarpur,9907994426,CHHATARPUR,MADHYA PRADESH,Piyush Agrawal,Revisit,24.9173275,79.5890112,,,20,
01/03/2025 13:45:37,Syad brother chhatarpur,8770100608,CHHATARPUR,MADHYA PRADESH,Piyush Agrawal,Revisit,24.9173275,79.5890112,,,,
01/03/2025 19:42:13,Soni mobail shop,9907294056,ASHOK NAGAR,MADHYA PRADESH,Lavkush,Revisit,24.5953744,77.7309833,,,,
03/03/2025 15:52:18,Anil mo,7898394255,SATNA,MADHYA PRADESH,Vinay Kumar Gupta,Revisit,24.5755992,80.8203311,,,,
03/03/2025 15:46:48,Maya mo,7415387212,SATNA,MADHYA PRADESH,Vinay Kumar Gupta,Revisit,24.5697893,80.8229211,,,,
03/03/2025 15:55:39,Dhanraj mo,9302484747,SATNA,MADHYA PRADESH,Vinay Kumar Gupta,Revisit,24.5756028,80.8203408,,,31,
03/03/2025 16:00:46,Sg mo shope,8964903010,SATNA,MADHYA PRADESH,Vinay Kumar Gupta,Revisit,24.5756099,80.8203182,,,,
11/03/2025 12:15:23,Shankar telicom darbhanga tawar,9801572786,DARBHANGA,BIHAR,Sagar Kumar Jha,Revisit,26.3097872,85.9567309,,,,
01/03/2025 14:46:59,Shubham Telecom,7275384612,PRATAPGARH,UTTAR PRADESH,Satyendra Sharma,Revisit,26.2325933,81.24934,,,1,
03/03/2025 16:03:40,Vijeta mo,8770418841,SATNA,MADHYA PRADESH,Vinay Kumar Gupta,Revisit,24.5756068,80.8203271,,,,
11/03/2025 10:25:29,Prem Mobile ,8002873065,DARBHANGA,BIHAR,Sagar Kumar Jha,Revisit,26.3897509,85.9253943,,,1,
12/03/2025 10:30:12,Sahu enterprises saharghat,7979857484,DARBHANGA,BIHAR,Sagar Kumar Jha,Revisit,26.3894783,85.9263583,,,33,
03/03/2025 17:19:58,Ramdev mobile Gariyadhar,9624353593,BHAVNAGAR,GUJARAT,DODIYA SALIMBHAI SULTANBHAI,Revisit,21.5331562,71.574151,,,10,
01/03/2025 11:54:21,Nitin Point,8052088888,PRATAPGARH,UTTAR PRADESH,Satyendra Sharma,Revisit,26.2348183,81.2463483,,,5,
03/03/2025 19:16:18,Viraj Mobile,7415324931,BHOPAL,MADHYA PRADESH,AMAN SHRIVASTAVA,Revisit,23.2808555,77.4197036,,,,
03/03/2025 10:21:10,mobbat mobile,9998582159,BHAVNAGAR,GUJARAT,ALFAZ VADADARIYA,Revisit,22.1730868,71.6657034,,,0,
12/03/2025 11:19:24,Shree Krishna mobile arer,9534705130,DARBHANGA,BIHAR,Sagar Kumar Jha,Revisit,26.389901,85.9053728,,,1,
03/03/2025 11:36:59,Shekhar Tech Service Point,6389313231,HAMIRPUR,UTTAR PRADESH,Ajay,Revisit,25.8241918,80.154842,,,2,
03/03/2025 10:58:32,Aditi mobile&el,8530141400,BHAVNAGAR,GUJARAT,ALFAZ VADADARIYA,Revisit,22.1670305,71.670313,,,13,
04/03/2025 12:19:02,New hanfi mobile,8469930236,RAJKOT,GUJARAT,MALEK RAHIL RAFIKBHAI,Revisit,21.740954,70.2835462,,,,
07/03/2025 20:21:02,Satyam mobile,9009831073,GWALIOR,MADHYA PRADESH,Arpit Shrivastava,Revisit,26.2407583,78.162725,,,0,
03/03/2025 13:11:20,Tas mobile,7489473270,DAMOH,MADHYA PRADESH,Zaki Khan,Revisit,23.8347755,79.4365816,,,3,
01/03/2025 17:36:26,Ankit telecom,8840250447,PRATAPGARH,UTTAR PRADESH,Satyendra Sharma,Revisit,26.2326605,81.2485128,,,28,
12/03/2025 12:07:45,As mobile madhepur,8210922337,DARBHANGA,BIHAR,Sagar Kumar Jha,Revisit,26.3695385,85.888335,,,,
04/03/2025 13:53:31,Sai Ram mobile shop,7057090955,AHMED NAGAR,MAHARASHTRA,Gautam Kacharu Nikam,Revisit,19.7201528,74.1360135,,,,
03/03/2025 16:22:38,Kaka communication,9927263639,SAHARANPUR,UTTAR PRADESH,NAVNEET KUMAR,Revisit,29.9564787,77.5470411,,,,
10/03/2025 13:07:11,Vansh Mobile Shop,8707089372,PRATAPGARH,UTTAR PRADESH,Satyendra Sharma,Revisit,26.2280773,81.2455384,,,1,
03/03/2025 11:12:30,D k mobile,9909088788,BHAVNAGAR,Gujarat,ALFAZ VADADARIYA,Revisit,22.1670367,71.6702948,,,,
04/03/2025 12:25:20,Sarkar mobile,8735873522,RAJKOT,GUJARAT,MALEK RAHIL RAFIKBHAI,Revisit,21.7409275,70.2834996,,,50,
12/03/2025 13:11:14,Tuk tuk mobile,7631961809,DARBHANGA,BIHAR,Sagar Kumar Jha,Revisit,26.3807267,85.89228,,,,
06/03/2025 15:20:52,Anuj Mobile World & Electronics,9140101510,KANPUR NAGAR,UTTAR PRADESH,Ashish Sharma,Not Interested,26.4559474,80.2051174,,,0,
03/03/2025 16:34:18,Vishwakarma Mobile,,HAMIRPUR,UTTAR PRADESH,Ajay,Revisit,25.8263333,80.1558717,,,,
10/03/2025 16:47:52,Mobile planet,9813523151,ROHTAK,HARYANA,Parvesh Kumar,Revisit,28.8912932,76.5988094,,,1,
01/03/2025 15:26:16,Abhi mobile,7694818549,RAJGARH,MADHYA PRADESH,RAHUL PARMAR,Revisit,23.4882119,76.3984342,,,,
03/03/2025 17:29:23,M R mobile point,9269375145,TONK,RAJASTHAN,Satyanatayan Songera,Service Call,26.1612662,75.7862494,,,0,
12/03/2025 18:35:27,Love khush mobile,,VIDISHA,Madhya Pradesh,NIKHIL YADAV,Revisit,23.3299087,77.7980318,,,,
25/03/2025 13:35:00,Vishal mobile plaza,9115088384,FARRUKHABAD,UTTAR PRADESH,Vijay Kumar,Revisit,27.543362,79.3259832,,,14,
23/03/2025 19:27:58,Shiv krapa Mobile,8821971143,BHOPAL,MADHYA PRADESH,AMAN SHRIVASTAVA,Revisit,23.3054966,77.415366,,,,
05/03/2025 12:20:03,Sahara electronics and furniture,8805750777,BULDHANA,MAHARASHTRA,Mohammad Irshad,Revisit,20.7070093,77.0133903,,,1,
04/03/2025 12:33:53,Lucky mobile,,RAJKOT,Gujarat,MALEK RAHIL RAFIKBHAI,Revisit,21.7393964,70.2849033,,,,
04/03/2025 12:38:23,Bule satar mobile,8160380555,RAJKOT,GUJARAT,MALEK RAHIL RAFIKBHAI,Revisit,21.7393586,70.2848977,,,,
03/03/2025 12:34:09,Shubham mobile shop nanded,9834133686,NANDED,MAHARASHTRA,Sandeep Telange,Revisit,19.1708636,77.3063006,,,1,
03/03/2025 12:34:56,Pattewar mobile shop,8605557476,NANDED,MAHARASHTRA,Sandeep Telange,Revisit,19.1709179,77.3062655,,,7,
05/03/2025 12:34:10,J.S. Enterprises,9336713175,PRATAPGARH,UTTAR PRADESH,Satyendra Sharma,Revisit,25.9175995,82.00026,,,25,
03/03/2025 11:20:40,Vaishnavi mobile and computer,9074740234,SATNA,MADHYA PRADESH,Vinay Kumar Gupta,Revisit,24.5552391,80.8406616,,,,
12/03/2025 16:09:41,I'm point & perfect mobile basaitha,9955336677,DARBHANGA,BIHAR,Sagar Kumar Jha,Revisit,26.447604,85.9114467,,,,
03/03/2025 11:37:30,Mobile point,7987585809,SATNA,MADHYA PRADESH,Vinay Kumar Gupta,Revisit,24.5552536,80.8406688,,,,
03/03/2025 11:51:16,A to z mobile shop,8770260546,SATNA,MADHYA PRADESH,Vinay Kumar Gupta,Revisit,24.5606715,80.8379235,,,,
19/03/2025 14:16:24,Raj Kumar mobile vijabar,8305101060,CHHATARPUR,MADHYA PRADESH,Piyush Agrawal,Revisit,24.8866621,79.593916,,,4,
03/03/2025 11:53:44,Rakesh mobile,7000100923,SATNA,MADHYA PRADESH,Vinay Kumar Gupta,Revisit,24.5606512,80.8378709,,,,
03/03/2025 12:55:08,Taj Mobile,9358010203,SAHARANPUR,UTTAR PRADESH,NAVNEET KUMAR,Revisit,29.9517488,77.4932711,,,0,
05/03/2025 15:19:48,JAISWAL TELECOM,7004821717,DHANBAD,JHARKHAND,Parmeswar Saw,Service Call,23.8181426,86.4095571,,,13,
03/03/2025 14:56:48,Ashu mobile Gallery,9756022234,SAHARANPUR,Uttar Pradesh,NAVNEET KUMAR,Revisit,30.0868144,77.6005458,,,118,
03/03/2025 14:56:13,Ashu Mobile Gallery,8650057035,SAHARANPUR,UTTAR PRADESH,NAVNEET KUMAR,Revisit,30.0868152,77.6005503,,,0,
15/03/2025 14:48:44,Shree ram mobile shop,9893239077,RAISEN,MADHYA PRADESH,NIKHIL YADAV,Revisit,23.3299925,77.7972884,,,1,
10/03/2025 13:25:06,New madhuram mobile,9898963996,BHAVNAGAR,GUJARAT,DODIYA SALIMBHAI SULTANBHAI,Revisit,21.37271,71.668395,,,0,
03/03/2025 18:28:12,New I mobail,7383428143,BHAVNAGAR,GUJARAT,DODIYA SALIMBHAI SULTANBHAI,Revisit,21.5390967,71.57708,,,5,
03/03/2025 14:11:22,Gufran mobile shop,9756028711,SAHARANPUR,UTTAR PRADESH,NAVNEET KUMAR,Revisit,30.0715071,77.5548191,,,0,
03/03/2025 12:04:37,5Gphones,8767087050,AHMED NAGAR,MAHARASHTRA,Gautam Kacharu Nikam,Revisit,19.8244655,74.3428452,,,1,
07/03/2025 11:10:21,Camuda mobile shop,8787609595,BHAVNAGAR,GUJARAT,DODIYA SALIMBHAI SULTANBHAI,Revisit,21.8136263,71.3885431,,,0,
03/03/2025 15:46:05,KGN Mobile Naigaon,9156808020,NANDED,MAHARASHTRA,Sandeep Telange,Revisit,19.1708726,77.3062156,,,12,
03/03/2025 11:57:15,Meera mobile,9753082441,RAJGARH,MADHYA PRADESH,RAHUL PARMAR,Revisit,23.4431032,76.160625,,,,
06/03/2025 12:08:56,Baba mobile,9506648444,KANPUR NAGAR,UTTAR PRADESH,Ashish Sharma,Revisit,26.404256,80.0689047,,,1,
13/03/2025 11:52:49,Abhinav Mobile,,PRATAPGARH,UTTAR PRADESH,Satyendra Sharma,Not Interested,26.2328855,81.2488651,,,,
04/03/2025 18:52:53,Kushal comunication,9926636580,SHAJAPUR,MADHYA PRADESH,RAHUL PARMAR,Revisit,23.5405183,76.2039,,,,
05/03/2025 15:23:52,Smriti Mobile,9572659791,DHANBAD,JHARKHAND,Parmeswar Saw,Not Interested,23.8181258,86.4095355,,,1,
03/03/2025 15:19:51,Gill communication LM,9992046006,ROHTAK,HARYANA,Parvesh Kumar,Revisit,28.8934017,76.5988978,,,33,
06/03/2025 12:23:49,Kohinur mobile shop,9767927110,AHMED NAGAR,MAHARASHTRA,Gautam Kacharu Nikam,Revisit,19.8189831,74.2004984,,,1,
12/03/2025 13:37:22,Urban Mobile Shop,9651806656,HAMIRPUR,UTTAR PRADESH,Ajay,Revisit,25.8279583,80.15698,,,9,
06/03/2025 12:53:14,Vansh Mobile World,7007208161,KANPUR NAGAR,UTTAR PRADESH,Ashish Sharma,Revisit,26.4045732,80.0703269,,,1,
24/03/2025 12:28:39,Tejasbhi shree mobile shop,,RAISEN,MADHYA PRADESH,NIKHIL YADAV,Revisit,23.3304251,77.7855074,,,,
03/03/2025 13:13:14,Raju mobile jabera,9300829940,DAMOH,MADHYA PRADESH,Zaki Khan,Revisit,23.8346546,79.4366164,,,14,
06/03/2025 12:59:36,Shubham Mobile World,8957431724,KANPUR NAGAR,UTTAR PRADESH,Ashish Sharma,Revisit,26.406073,80.0767314,,,0,
04/03/2025 14:20:35,Dange mobile shop,9545121213,AHMED NAGAR,MAHARASHTRA,Gautam Kacharu Nikam,Revisit,19.7929632,74.1876776,,,,
19/03/2025 18:17:14,Smart digi store,,GHAZIABAD,UTTAR PRADESH,Vipin Shukla,Not Interested,28.7766817,77.51257,,,,
03/03/2025 15:50:13,Balaji mobile Naigaon,9860631002,NANDED,MAHARASHTRA,Sandeep Telange,Revisit,19.1708435,77.3062703,,,32,
03/03/2025 13:32:44,Noor mobile shop,9329158924,PANNA,MADHYA PRADESH,Mohammad Waseem Akram,Revisit,24.7196248,80.1922443,,,,
04/03/2025 14:14:45,Pawan mobile,9826524044,SHAJAPUR,MADHYA PRADESH,RAHUL PARMAR,Revisit,23.5289233,76.2732468,,,,
01/03/2025 13:16:06,Vinayak mobile,9009009750,SHAJAPUR,MADHYA PRADESH,RAHUL PARMAR,Revisit,23.3703151,76.3412998,,,,
20/03/2025 17:40:07,Shiva Mobile Center,,PRATAPGARH,UTTAR PRADESH,Satyendra Sharma,Not Interested,25.917029,81.9997113,,,,
06/03/2025 13:30:15,Satyam mobile world & Electronics,8182090812,KANPUR NAGAR,UTTAR PRADESH,Ashish Sharma,Revisit,26.4055532,80.0764803,,,,
03/03/2025 12:44:28,navrang mobile,9925986771,BHAVNAGAR,GUJARAT,ALFAZ VADADARIYA,Revisit,21.9688104,71.5739554,,,,
06/03/2025 18:13:17,Samadhan mobile shop,9975388825,AHMED NAGAR,MAHARASHTRA,Gautam Kacharu Nikam,Revisit,19.8181583,74.2017267,,,0,
19/03/2025 14:10:42,Shan mobile vijabar,8516970412,CHHATARPUR,MADHYA PRADESH,Piyush Agrawal,Revisit,24.9059533,79.5846108,,,9,
03/03/2025 11:55:57,Gloval mo,6266347738,SATNA,MADHYA PRADESH,Vinay Kumar Gupta,Revisit,24.5606742,80.8378944,,,,
03/03/2025 13:34:30,Sunil mobile shop,7566571566,PANNA,MADHYA PRADESH,Mohammad Waseem Akram,Revisit,24.7193039,80.1929064,,,,
25/03/2025 15:24:19,Rahul mobile,8878692995,RAISEN,MADHYA PRADESH,NIKHIL YADAV,Service Call,23.007026,77.6349963,,,,
03/03/2025 16:43:05,DINESH ELECTRONICS,9608355435,DHANBAD,JHARKHAND,Parmeswar Saw,Not Interested,23.8180553,86.4094952,,,1,
13/03/2025 11:01:40,Mukesh mobile,8109948815,DARBHANGA,BIHAR,Sagar Kumar Jha,Revisit,26.3894779,85.92636,,,,
04/03/2025 10:33:06,variya mobile,9429554448,BHAVNAGAR,GUJARAT,ALFAZ VADADARIYA,Revisit,22.1724579,71.6650638,,,,
04/03/2025 11:34:21,Krishna mobile,9624964411,BHAVNAGAR,GUJARAT,ALFAZ VADADARIYA,Revisit,22.170808,71.6650508,,,,
07/03/2025 17:22:20,Madhur Mobile,9907007763,BHOPAL,MADHYA PRADESH,AMAN SHRIVASTAVA,Revisit,23.3052709,77.4146639,,,1,
05/03/2025 15:33:12,Bhawani Mobile,9300970091,BHOPAL,MADHYA PRADESH,AMAN SHRIVASTAVA,Revisit,23.2999201,77.4332656,,,0,
18/03/2025 11:46:35,Laxmi mobile upleta,9601661660,RAJKOT,GUJARAT,MALEK RAHIL RAFIKBHAI,Revisit,21.7421243,70.2782165,,,12,
03/03/2025 11:47:57,Shiv mobile,9588431272,BULDHANA,MAHARASHTRA,Mohammad Irshad,Revisit,20.7069998,77.0133845,,,1,
07/03/2025 13:15:57,Somesh communication,7620231444,BULDHANA,MAHARASHTRA,Mohammad Irshad,Revisit,20.1074127,77.1309125,,,1,
11/03/2025 10:44:10,G.K.Enterprises,8382979999,PRATAPGARH,UTTAR PRADESH,Satyendra Sharma,Revisit,26.2473242,81.4682351,,,,
04/03/2025 16:44:52,Gurudatta mobile shop,7293171777,AHMED NAGAR,MAHARASHTRA,Gautam Kacharu Nikam,Revisit,19.819465,74.20408,,,,
18/03/2025 11:55:11,Ramdev mobile upleta,9033773132,RAJKOT,GUJARAT,MALEK RAHIL RAFIKBHAI,Revisit,21.7421924,70.2781453,,,,
13/03/2025 12:03:52,RS telicom ,8051934576,DARBHANGA,BIHAR,Sagar Kumar Jha,Revisit,26.32851,85.9423783,,,,
04/03/2025 13:29:46,,7000729088,DAMOH,MADHYA PRADESH,Zaki Khan,Revisit,23.3977376,79.5400264,,,3,
04/03/2025 13:36:56,,7000427636,DAMOH,MADHYA PRADESH,Zaki Khan,Revisit,23.3978027,79.5400286,,,1,
18/03/2025 12:03:11,Gelaxy mobile upleta,9879237816,RAJKOT,GUJARAT,MALEK RAHIL RAFIKBHAI,Revisit,21.7422302,70.2773937,,,,
04/03/2025 14:16:06,badari mobile,9726381652,BHAVNAGAR,GUJARAT,ALFAZ VADADARIYA,Revisit,22.16939,71.6698336,,,0,
11/03/2025 11:06:16,Moden mobile,9724449212,AMRELI,GUJARAT,DODIYA SALIMBHAI SULTANBHAI,Revisit,21.0961048,71.7587423,,,,
06/03/2025 12:26:26,SSG MOBILE SHOP,9028204015,AHMED NAGAR,MAHARASHTRA,Gautam Kacharu Nikam,Revisit,19.8191133,74.2005817,,,,
04/03/2025 18:47:42,Shristi Communication,9837163727,GHAZIABAD,UTTAR PRADESH,Vipin Shukla,Not Interested,28.6856067,77.5027117,,,,
15/03/2025 14:02:46,Sandeep  mobile,9598707012,AZAMGARH,UTTAR PRADESH,Sonu Kumar,Revisit,26.1725621,83.3366891,,,,
01/03/2025 16:03:27,Ars Communication,8521068883,MADHUBANI,BIHAR,Sajan Kumar,Revisit,26.4412564,85.8113556,,,,
20/03/2025 18:43:56,Shanavi Communication,9643378830,GHAZIABAD,UTTAR PRADESH,Vipin Shukla,Not Interested,28.6868017,77.5013567,,,1,
06/03/2025 11:39:45,J d mobile,8140050044,RAJKOT,GUJARAT,MALEK RAHIL RAFIKBHAI,Revisit,21.7430425,70.2851125,,,,
04/03/2025 12:50:11,Kohinur mobile shop,9767927110,AHMED NAGAR,MAHARASHTRA,Gautam Kacharu Nikam,Revisit,19.7208294,74.1363599,,,1,
04/03/2025 13:19:21,5G mobile store,8686404088,SAHARANPUR,UTTAR PRADESH,NAVNEET KUMAR,Revisit,30.1657131,77.6138212,,,13,
04/03/2025 14:53:42,Shree Agrsen communication,8233276676,TONK,RAJASTHAN,Satyanatayan Songera,App Install,26.3567726,75.9250449,,,1,
04/03/2025 13:53:14,Honey communication,7906977474,SAHARANPUR,UTTAR PRADESH,NAVNEET KUMAR,Revisit,30.1679219,77.6148124,,,13,
19/03/2025 12:02:02,Amit Mobile,9999329334,GHAZIABAD,UTTAR PRADESH,Vipin Shukla,Revisit,28.6745883,77.4826067,,,,
04/03/2025 13:53:57,Sharma communication,9761196450,SAHARANPUR,UTTAR PRADESH,NAVNEET KUMAR,Revisit,30.1679162,77.6148915,,,,
17/03/2025 13:01:17,Ganpati Mobile,9140545060,PRATAPGARH,UTTAR PRADESH,Satyendra Sharma,Revisit,25.9172052,82.1074189,,,13,
04/03/2025 14:01:15,Paras Redio,9829302049,TONK,RAJASTHAN,Satyanatayan Songera,Service Call,26.358715,75.9262328,,,,
22/03/2025 17:21:38,Sonu Mobile World,8887810857,PRATAPGARH,UTTAR PRADESH,Satyendra Sharma,Revisit,25.9175575,81.9999962,,,,
13/03/2025 13:09:41,Rajneesh mobi,8292233888,DARBHANGA,BIHAR,Sagar Kumar Jha,Revisit,26.1746667,85.9574,,,,
04/03/2025 15:31:50,Anant Mobile Gallery,9758501100,SAHARANPUR,UTTAR PRADESH,NAVNEET KUMAR,Revisit,29.9564719,77.5468984,,,,
07/03/2025 14:24:37,Sahuji collection,7024932684,RAISEN,MADHYA PRADESH,NIKHIL YADAV,Revisit,23.4500938,77.7676767,,,64,
04/03/2025 14:14:26,AKG ELECTRONICS AND SERVICE,8923100702,SAHARANPUR,UTTAR PRADESH,NAVNEET KUMAR,Revisit,30.1705589,77.6158899,,,1,
10/03/2025 11:49:59,Sahuji collection..2,9111681770,RAISEN,MADHYA PRADESH,NIKHIL YADAV,Revisit,23.3392302,77.8284143,,,11,
04/03/2025 19:37:24,Riya mobile,7869118406,RAJGARH,MADHYA PRADESH,RAHUL PARMAR,Revisit,23.5404883,76.20388,,,1,
04/03/2025 11:45:29,Shree shantinath telecom,9928917307,TONK,RAJASTHAN,Satyanatayan Songera,Service Call,26.3592347,75.9263942,,,,
04/03/2025 12:34:32,Arnaz mobile,9826570666,SATNA,MADHYA PRADESH,Vinay Kumar Gupta,Revisit,24.5751669,80.8231763,,,,
11/03/2025 15:00:40,Hakimi mobile,9427428496,AMRELI,GUJARAT,DODIYA SALIMBHAI SULTANBHAI,Revisit,21.0372686,71.4435083,,,,
04/03/2025 12:37:14,Star mobile,9009814643,SATNA,MADHYA PRADESH,Vinay Kumar Gupta,Revisit,24.5753113,80.8231889,,,,
17/03/2025 11:25:10,Abhinav Telecom,8564894745,KANPUR NAGAR,UTTAR PRADESH,Ashish Sharma,Not Interested,26.428271,80.4022947,,,,
06/03/2025 12:30:20,Morya mobile shop,9890700240,AHMED NAGAR,MAHARASHTRA,Gautam Kacharu Nikam,Revisit,19.8190267,74.200565,,,0,
04/03/2025 14:10:24,Rahi Mobile Gallery,9759141419,SAHARANPUR,UTTAR PRADESH,NAVNEET KUMAR,Revisit,30.1705584,77.6158816,,,4,
04/03/2025 13:56:06,Vandana mobile,6261787795,SATNA,MADHYA PRADESH,Vinay Kumar Gupta,Revisit,24.5606819,80.8378985,,,,
04/03/2025 19:06:40,Sachin communication,9837726265,SAHARANPUR,UTTAR PRADESH,NAVNEET KUMAR,Revisit,29.945769,77.5347871,,,,
04/03/2025 13:58:09,Utkarsh mo,9981153613,SATNA,MADHYA PRADESH,Vinay Kumar Gupta,Revisit,24.5606527,80.8378422,,,,
04/03/2025 19:38:04,Shree sawariya mobile,9753109876,UJJAIN,MADHYA PRADESH,RAHUL PARMAR,Revisit,23.5404817,76.2039,,,,
04/03/2025 19:07:26,Kamboj communication,9758970905,SAHARANPUR,UTTAR PRADESH,NAVNEET KUMAR,Revisit,29.945769,77.5347871,,,,
04/03/2025 13:01:37,Vijaywargiya mobile,8619572727,TONK,RAJASTHAN,Satyanatayan Songera,Service Call,26.3593698,75.9264293,,,,
13/03/2025 13:02:23,Maa Sharda Mobiles,,PRATAPGARH,UTTAR PRADESH,Satyendra Sharma,Not Interested,26.205834,81.2837128,,,,
13/03/2025 17:15:09,Rakhi enterprises jagwan,9708237179,DARBHANGA,BIHAR,Sagar Kumar Jha,Revisit,26.3107051,85.9570459,,,1,
05/03/2025 12:05:59,Multy style,8564009514,KANPUR NAGAR,UTTAR PRADESH,Ashish Sharma,Not Interested,26.399565,80.3766692,,,,
04/03/2025 13:51:27,Shree shiv mobile point,9950850721,TONK,RAJASTHAN,Satyanatayan Songera,Service Call,26.359355,75.9266454,,,,
04/03/2025 14:14:00,,8817884072,DAMOH,MADHYA PRADESH,Zaki Khan,Revisit,23.395174,79.5395819,,,6,
11/03/2025 13:50:21,Neeraj telecom,9935169191,KANPUR DEHAT,UTTAR PRADESH,Ashish Sharma,Not Interested,26.4026611,80.0702308,,,1,
05/03/2025 16:50:18,Asif Mobile,6200978338,DHANBAD,JHARKHAND,Parmeswar Saw,Not Interested,23.8174872,86.4100247,,,,
05/03/2025 13:38:32,New shivam digital studio,7870182753,DHANBAD,JHARKHAND,Parmeswar Saw,Not Interested,23.8640049,86.374699,,,1,
21/03/2025 11:59:27,Gangwal& sons mobile shop,7030641919,AHMED NAGAR,MAHARASHTRA,Gautam Kacharu Nikam,Revisit,19.8161783,74.2114933,,,1,
01/03/2025 15:26:40,Aadarsh mobile,9669926480,SHAJAPUR,MADHYA PRADESH,RAHUL PARMAR,Revisit,23.4903337,76.3985158,,,5,
06/03/2025 12:35:13,Ss mobile shop,8956662925,AHMED NAGAR,MAHARASHTRA,Gautam Kacharu Nikam,Revisit,19.8188767,74.2005333,,,1,
06/03/2025 17:49:17,Pranav mobile shop,9921219921,AHMED NAGAR,MAHARASHTRA,Gautam Kacharu Nikam,Revisit,19.8181583,74.2017267,,,1,
17/03/2025 17:41:32,Atul mobile,9838335800,PRATAPGARH,UTTAR PRADESH,Satyendra Sharma,Not Interested,25.9300612,82.004844,,,1,
19/03/2025 14:47:51,Vikram Mobile Shop,7905049120,HAMIRPUR,UTTAR PRADESH,Ajay,Revisit,25.8356317,80.1545833,,,,
04/03/2025 13:08:37,Ganpati mobile,9829205691,TONK,RAJASTHAN,Satyanatayan Songera,Service Call,26.3593698,75.9264293,,,11,
04/03/2025 13:27:05,Ganpati mobile,9829205691,TONK,RAJASTHAN,Satyanatayan Songera,Key Purchased,26.3593643,75.9266522,10,2000,11,00000195-6030-13d4-824c-14524dcf64bd
18/03/2025 19:04:16,Ganesh enterprises,8053700200,JHAJJAR,HARYANA,Parvesh Kumar,Revisit,28.8945678,76.573245,,,1,
23/03/2025 12:26:33,Mobile store,7250077977,DARBHANGA,BIHAR,Sagar Kumar Jha,Revisit,26.3912321,85.9076087,,,,
01/03/2025 17:27:09,Mobile magic,9893007862,SHAJAPUR,MADHYA PRADESH,RAHUL PARMAR,Revisit,23.4235227,76.2807035,,,,
21/03/2025 15:25:09,Sam Mobile Shop,9305166379,JHANSI,UTTAR PRADESH,Ajay,Revisit,25.8356633,80.1546217,,,,
04/03/2025 11:24:24,Balagi mobile,7880052100,SHAJAPUR,MADHYA PRADESH,RAHUL PARMAR,Revisit,23.4239448,76.2809918,,,4,
04/03/2025 18:27:44,Seema Mobile,9893362852,BHOPAL,MADHYA PRADESH,AMAN SHRIVASTAVA,Revisit,23.3056265,77.4155173,,,7,
03/03/2025 13:28:45,Sharma Mobile,8965862174,BHOPAL,MADHYA PRADESH,AMAN SHRIVASTAVA,Revisit,23.3054093,77.4148182,,,35,
03/03/2025 15:48:48,Shree Mobile,9617602928,BHOPAL,MADHYA PRADESH,AMAN SHRIVASTAVA,Revisit,23.3007696,77.4246798,,,1,
01/03/2025 17:04:38,New Naushad Communication Trimuhan,8298362016,MADHUBANI,BIHAR,Sajan Kumar,Revisit,26.4412467,85.8112562,,,,
03/03/2025 14:28:57,Vijay communication,8126268282,DEHRADUN,UTTARAKHAND,Sagar Singh,Revisit,30.3696579,78.113314,,,0,
04/03/2025 13:42:09,Agrawal mobile harpalpur,9893941453,CHHATARPUR,MADHYA PRADESH,Piyush Agrawal,Revisit,24.9169565,79.5891347,,,11,
04/03/2025 13:43:47,Balaji Mobile harpalpur,8800488107,CHHATARPUR,MADHYA PRADESH,Piyush Agrawal,Revisit,24.9169565,79.5891347,,,11,
11/03/2025 17:44:38,Bundelkhand mobile Chhatarpur,9302172982,CHHATARPUR,MADHYA PRADESH,Piyush Agrawal,Revisit,24.9169675,79.5891988,,,1,
10/03/2025 16:34:13,Rajat Mobile  and electronic,,PRATAPGARH,UTTAR PRADESH,Satyendra Sharma,Revisit,26.1397355,81.8600706,,,,
03/03/2025 14:32:02,Bhanu mobile shop,7068292914,FARRUKHABAD,UTTAR PRADESH,Vijay Kumar,Revisit,27.5526306,79.1285695,,,0,
12/03/2025 13:18:57,Laxmi Telecom,7388270605,KANPUR NAGAR,UTTAR PRADESH,Ashish Sharma,Key Purchased,26.3786286,80.4113431,0,0,70,
13/03/2025 11:24:02,S Computer & Mobile Shop Jamunipur,,KHERI,UTTAR PRADESH,Suvipra Upadhyay,Revisit,26.4890155,82.5900237,,,,
11/03/2025 17:43:08,Anant Sakti mobile Chhatarpur,8871614899,CHHATARPUR,MADHYA PRADESH,Piyush Agrawal,Revisit,24.9169512,79.5891991,,,,
04/03/2025 11:53:03,Navin mobile,7014090446,TONK,RAJASTHAN,Satyanatayan Songera,Service Call,26.3592353,75.9264236,,,1,
01/03/2025 12:39:34,Om Mobile,9696163030,PRATAPGARH,UTTAR PRADESH,Satyendra Sharma,Revisit,26.2325701,81.2493071,,,25,
05/03/2025 16:30:08,Shiv krapa Mobile,8821971143,BHOPAL,MADHYA PRADESH,AMAN SHRIVASTAVA,Revisit,23.305556,77.4147859,,,,
11/03/2025 18:23:46,Govind mobile point,7905606245,FARRUKHABAD,UTTAR PRADESH,Vijay Kumar,Revisit,27.5515337,79.3431762,,,33,
13/03/2025 11:54:11,Modella Mobile Gallary,,PRATAPGARH,UTTAR PRADESH,Satyendra Sharma,Not Interested,26.2328725,81.2490507,,,,
04/03/2025 11:12:04,Siwan electronics madaripur,9415169909,JALAUN,UTTAR PRADESH,Rohit Kumar,Revisit,26.3128034,79.396325,,,,
04/03/2025 10:26:16,Tiwari green solar energy,7007466966,JALAUN,UTTAR PRADESH,Rohit Kumar,Revisit,26.2861553,79.4304537,,,23,
13/03/2025 13:23:00,Shiva Mobile Center,,PRATAPGARH,UTTAR PRADESH,Satyendra Sharma,Revisit,26.205834,81.2837128,,,,
11/03/2025 13:57:01,Raj Mobile,9565742588,KANPUR NAGAR,UTTAR PRADESH,Ashish Sharma,Not Interested,26.4026351,80.0704501,,,1,
04/03/2025 15:45:23,Viraj Mobile,7415324931,BHOPAL,MADHYA PRADESH,AMAN SHRIVASTAVA,Revisit,23.2962124,77.4049788,,,,
05/03/2025 10:44:12,badiya mobile,9725942123,BHAVNAGAR,GUJARAT,ALFAZ VADADARIYA,Revisit,22.1709863,71.6645537,,,1,
05/03/2025 11:06:34,,9131471260,DAMOH,MADHYA PRADESH,Zaki Khan,Revisit,23.8397071,79.4442987,,,12,
04/03/2025 10:35:08,Sakshi mobile arer,9572981639,DARBHANGA,BIHAR,Sagar Kumar Jha,Revisit,26.3894398,85.9263206,,,,
05/03/2025 16:42:10,,6261893320,DAMOH,MADHYA PRADESH,Zaki Khan,Revisit,23.8332486,79.4391843,,,1,
18/03/2025 15:05:13,Nancy mobile,7415018968,RAISEN,MADHYA PRADESH,NIKHIL YADAV,Revisit,23.3271644,77.7830409,,,0,
04/03/2025 11:27:31,Friends Mobile world,9996995300,PANIPAT,HARYANA,Deepak KUmar,Revisit,29.529715,76.8022392,,,5,
15/03/2025 14:33:48,Shiv mobile planet,7737348359,TONK,RAJASTHAN,Satyanatayan Songera,Service Call,26.1543071,75.7955993,,,,
01/03/2025 10:50:30,R.J. mobile,8808411199,KANPUR NAGAR,UTTAR PRADESH,Ashish Sharma,Not Interested,26.3994369,80.3766851,,,1,
04/03/2025 13:28:20,Raza interprises pandoul,9311756336,DARBHANGA,BIHAR,Sagar Kumar Jha,Revisit,26.3627809,86.0349234,,,,
01/03/2025 15:27:28,Raja mobile,9806156663,RAJGARH,MADHYA PRADESH,RAHUL PARMAR,Revisit,23.4944731,76.3985394,,,1,
05/03/2025 10:46:08,Mira mobile,9104705800,SURENDRA NAGAR,GUJARAT,ALFAZ VADADARIYA,Revisit,22.1709527,71.6645484,,,1,
04/03/2025 19:15:07,Sai Mobile Shop Hamirpur,7497964461,HAMIRPUR,UTTAR PRADESH,Ajay,Revisit,25.8303297,80.1608983,,,1,
05/03/2025 11:03:07,Deluxe mobile,9924340987,BHAVNAGAR,GUJARAT,DODIYA SALIMBHAI SULTANBHAI,Revisit,21.5347346,71.8238775,,,7,
03/03/2025 13:13:44,Cromo mobile,7024644193,UJJAIN,MADHYA PRADESH,RAHUL PARMAR,Revisit,23.5044813,76.0790099,,,8,
05/03/2025 11:50:23,Vanshu Mobile,9919110027,KANPUR NAGAR,UTTAR PRADESH,Ashish Sharma,Revisit,26.4158727,80.3924057,,,,
17/03/2025 17:58:16,S.S.Enterprises,,PRATAPGARH,UTTAR PRADESH,Satyendra Sharma,Not Interested,25.9171835,81.9998779,,,,
04/03/2025 13:02:47,Naaz mobile darima darbhanga,6202062224,DARBHANGA,BIHAR,Sagar Kumar Jha,Revisit,26.3704038,85.9616218,,,,
04/03/2025 13:03:51,Niyaz mobile Tisi,8779241643,DARBHANGA,BIHAR,Sagar Kumar Jha,Revisit,26.3703983,85.9616167,,,1,
15/03/2025 12:17:52,Mayur telecom,9728010001,ROHTAK,HARYANA,Parvesh Kumar,Revisit,28.8911183,76.598805,,,,
05/03/2025 13:24:29,Satt sahib communication,8433407957,SAHARANPUR,UTTAR PRADESH,NAVNEET KUMAR,Revisit,29.6945642,77.6837464,,,17,
18/03/2025 19:09:25,Durga telecom,7206673201,ROHTAK,HARYANA,Parvesh Kumar,Revisit,28.8972951,76.5743416,,,0,
22/03/2025 13:10:50,Chaba communication,9034343409,ROHTAK,HARYANA,Parvesh Kumar,Not Interested,28.89125,76.5989017,,,1,
11/03/2025 11:23:38,Patel mobile,7869209217,RAJKOT,GUJARAT,MALEK RAHIL RAFIKBHAI,Revisit,21.7402474,70.2848346,,,0,
01/03/2025 16:44:29,shyam el,9898540707,BOTAB,GUJARAT,ALFAZ VADADARIYA,Revisit,22.5394309,71.7929293,,,1,
01/03/2025 11:22:17,VAKRTUND MOBILE,9850312068,BULDHANA,MAHARASHTRA,Mohammad Irshad,Revisit,20.3484482,76.2552324,,,,
18/03/2025 12:56:26,Anand mobile and electronic,,RAISEN,MADHYA PRADESH,NIKHIL YADAV,Not Interested,23.3297279,77.7956793,,,,
05/03/2025 12:39:52,K m c mobile,7474177041,RAJKOT,GUJARAT,MALEK RAHIL RAFIKBHAI,Revisit,21.7402043,70.284554,,,,
17/03/2025 18:48:44,Shee sai communication and mobile shop,9890133903,AHMED NAGAR,MAHARASHTRA,Gautam Kacharu Nikam,Revisit,19.81927,74.2040133,,,1,
22/03/2025 12:41:40,Royal Mobile,,RAJKOT,Gujarat,MALEK RAHIL RAFIKBHAI,Revisit,21.7381919,70.284643,,,,
04/03/2025 13:02:40,Nikhil mobile,9890135960,AHMED NAGAR,MAHARASHTRA,Gautam Kacharu Nikam,Revisit,19.7198458,74.1358236,,,,
06/03/2025 16:29:34,Lakshmi communication,9881802026,AHMED NAGAR,MAHARASHTRA,Gautam Kacharu Nikam,Revisit,19.81868,74.20437,,,0,
05/03/2025 11:55:10,Mohit mobile,9522319690,SATNA,MADHYA PRADESH,Vinay Kumar Gupta,Revisit,24.5606513,80.8378679,,,,
05/03/2025 12:01:36,Kesharwani mobile,9685988481,REWA,MADHYA PRADESH,Vinay Kumar Gupta,Revisit,24.5606348,80.8378468,,,,
04/03/2025 15:20:43,Ma Chaura Mobile Shop,8318247460,HAMIRPUR,UTTAR PRADESH,Ajay,Revisit,25.826418,80.1573899,,,14,
05/03/2025 15:42:22,Amit mo,8359997081,SATNA,MADHYA PRADESH,Vinay Kumar Gupta,Revisit,24.5606718,80.8379011,,,,
06/03/2025 16:28:24,Jayshree mobile shop,9503333236,AHMED NAGAR,MAHARASHTRA,Gautam Kacharu Nikam,Revisit,19.81868,74.20437,,,1,
06/03/2025 16:26:55,Jay mata di mobile shop kolpewadi,9067219778,AHMED NAGAR,MAHARASHTRA,Gautam Kacharu Nikam,Revisit,19.81868,74.20437,,,1,
06/03/2025 11:32:38,Yuva mobile shop,9373800154,AHMED NAGAR,MAHARASHTRA,Gautam Kacharu Nikam,Revisit,19.8187265,74.2012882,,,1,
05/03/2025 16:43:10,Sanskar mobile,9584001644,DAMOH,MADHYA PRADESH,Zaki Khan,Revisit,23.8332632,79.4391773,,,7,
07/03/2025 10:43:34,Anoop Mobile,8400938689,KANPUR NAGAR,UTTAR PRADESH,Ashish Sharma,Revisit,26.4470854,80.5337191,,,,
01/03/2025 18:57:36,Ma sarda mobile,9993279444,UJJAIN,MADHYA PRADESH,RAHUL PARMAR,Revisit,23.4324467,76.2527717,,,,
03/03/2025 15:19:40,Rohit electronics,8109507395,SHAJAPUR,MADHYA PRADESH,RAHUL PARMAR,Revisit,23.5205883,76.0832283,,,,
12/03/2025 15:36:29,Jain Adinath Traders,8209767004,TONK,RAJASTHAN,Satyanatayan Songera,Service Call,26.0256132,75.4853984,,,1,
13/03/2025 14:28:32,Sai mobile shop,8626077439,AHMED NAGAR,MAHARASHTRA,Gautam Kacharu Nikam,Revisit,19.84723,73.9936883,,,1,
06/03/2025 12:23:48,Raju mobile,9889554885,PRATAPGARH,UTTAR PRADESH,Satyendra Sharma,Revisit,25.94778,82.0046923,,,19,
05/03/2025 12:31:24,Sonik mobile Shop,7007696640,FARRUKHABAD,UTTAR PRADESH,Vijay Kumar,Revisit,27.5556414,79.3369775,,,7,
05/03/2025 12:38:54,Kadri interprises,,FARRUKHABAD,UTTAR PRADESH,Vijay Kumar,Revisit,27.55574,79.3368422,,,,
03/03/2025 15:48:19,Arihant Mobile,9302088701,BHOPAL,MADHYA PRADESH,AMAN SHRIVASTAVA,Revisit,23.3007154,77.4246722,,,1,
04/03/2025 16:58:56,Shrasti Mobile,8839477670,BHOPAL,MADHYA PRADESH,AMAN SHRIVASTAVA,Revisit,23.3050314,77.4145797,,,29,
05/03/2025 15:32:47,Yash enterprises,7828665957,BHOPAL,MADHYA PRADESH,AMAN SHRIVASTAVA,Revisit,23.2999062,77.433278,,,1,
04/03/2025 13:01:46,Maharashtra mobile shop himayatnagar,9881909072,NANDED,MAHARASHTRA,Sandeep Telange,Revisit,19.1047973,77.2823526,,,0,
03/03/2025 13:30:02,Rajput Mobile,9039327279,BHOPAL,MADHYA PRADESH,AMAN SHRIVASTAVA,Revisit,23.3054054,77.4148179,,,9,
22/03/2025 16:31:45,Krishana mobile,9644126976,BHOPAL,MADHYA PRADESH,AMAN SHRIVASTAVA,Revisit,23.3032542,77.4158682,,,14,
04/03/2025 13:02:44,Metro mobile shop nanded,7020824502,NANDED,MAHARASHTRA,Sandeep Telange,Revisit,19.1027422,77.2796258,,,,
05/03/2025 15:44:46,Vikash mobile,9131255063,SATNA,MADHYA PRADESH,Vinay Kumar Gupta,Revisit,24.5606368,80.8378254,,,,
21/03/2025 15:02:08,Satyam Mobile,,PRATAPGARH,UTTAR PRADESH,Satyendra Sharma,Not Interested,26.2449984,81.2417345,,,,
12/03/2025 14:54:52,Akshat mobile,8852848399,TONK,RAJASTHAN,Satyanatayan Songera,Service Call,26.0276031,75.4830328,,,,
05/03/2025 16:46:30,Mobile point,7000100835,DAMOH,MADHYA PRADESH,Zaki Khan,Service Call,23.8332619,79.4391499,,,14,
05/03/2025 19:33:05,Rudra Communication,7024407742,DAMOH,Madhya Pradesh,Zaki Khan,Revisit,23.8397712,79.4442557,,,23,
05/03/2025 19:34:10,Shubham mobile,6268803032,DAMOH,Madhya Pradesh,Zaki Khan,Revisit,23.8397777,79.4442726,,,7,
20/03/2025 18:16:29,Ganpati telecom,9896975156,ROHTAK,HARYANA,Parvesh Kumar,Service Call,29.15998,75.720842,,,57,
20/03/2025 18:18:10,rohilla mobile point,9992155999,ROHTAK,HARYANA,Parvesh Kumar,Service Call,29.1599819,75.7208221,,,129,
05/03/2025 17:38:35,Agrawal mobile nowgong,9074342352,CHHATARPUR,MADHYA PRADESH,Piyush Agrawal,Revisit,24.9170623,79.5891584,,,13,
12/03/2025 13:48:06,Shiv mobile & company,9928661444,TONK,RAJASTHAN,Satyanatayan Songera,Service Call,26.0287173,75.4834955,,,,
05/03/2025 19:36:21,Aakash mobile,9981744160,DAMOH,MADHYA PRADESH,Zaki Khan,Revisit,23.8397585,79.4442446,,,,
05/03/2025 17:39:47,Shri Om Mobile nowgong,7000142459,CHHATARPUR,MADHYA PRADESH,Piyush Agrawal,Revisit,24.9169657,79.589135,,,1,
04/03/2025 16:01:30,Radhe Radhe ji telicom pupari,7979011652,DARBHANGA,BIHAR,Sagar Kumar Jha,Revisit,26.314305,86.0646317,,,,
05/03/2025 14:01:10,Star communication,9319155166,SAHARANPUR,UTTAR PRADESH,NAVNEET KUMAR,Revisit,29.6940851,77.6792745,,,29,
12/03/2025 17:06:32,Shivay mobile,8560822264,TONK,RAJASTHAN,Satyanatayan Songera,Service Call,26.0279229,75.4831483,,,,
06/03/2025 19:54:57,Akash gupta,9125073583,FARRUKHABAD,UTTAR PRADESH,Vijay Kumar,Revisit,27.5551798,79.3359171,,,0,
05/03/2025 14:05:37,New Age Digital,7017417010,SAHARANPUR,UTTAR PRADESH,NAVNEET KUMAR,Revisit,29.700471,77.6811207,,,12,
11/03/2025 11:32:52,Shree mobile,9708157307,SITAMARHI,BIHAR,SAURABH KUMAR,Revisit,26.5866435,85.4727743,,,,
10/03/2025 14:25:44,Annu mobile nowgong,9131383701,CHHATARPUR,MADHYA PRADESH,Piyush Agrawal,Revisit,25.6364857,78.4698112,,,1,
10/03/2025 12:23:57,Vyas mobile point,9314151212,JHALAWAR,RAJASTHAN,KUNAL VYAS,Revisit,24.1286221,75.8590337,,,114,
04/03/2025 16:36:00,Shubham mobile shop nanded,9834133686,NANDED,MAHARASHTRA,Sandeep Telange,Revisit,18.8739726,77.1842629,,,1,
04/03/2025 16:36:27,Maharastra Electronics Ardhapur,8007711905,NANDED,MAHARASHTRA,Sandeep Telange,Revisit,18.873799,77.1841468,,,1,
13/03/2025 15:47:32,Faruqui Mobile Shop,,PRATAPGARH,UTTAR PRADESH,Satyendra Sharma,Revisit,26.2327967,81.2486117,,,,
01/03/2025 13:00:16,Raj Kumar yadav,9695913307,PRATAPGARH,UTTAR PRADESH,Satyendra Sharma,Revisit,26.2325733,81.2493433,,,0,
10/03/2025 14:33:30,Google mobile nowgong,9770977367,CHHATARPUR,MADHYA PRADESH,Piyush Agrawal,Revisit,25.6160265,78.4785857,,,11,
05/03/2025 14:26:08,Exalted Enterprises,9358967714,SAHARANPUR,UTTAR PRADESH,NAVNEET KUMAR,Revisit,29.7028657,77.6750729,,,13,
10/03/2025 14:36:54,Chaman mobile nowgong,9755224565,CHHATARPUR,MADHYA PRADESH,Piyush Agrawal,Revisit,25.6060717,78.4846714,,,1,
05/03/2025 13:50:58,Arhaan mobile,9084375728,SAHARANPUR,UTTAR PRADESH,NAVNEET KUMAR,Revisit,29.6891113,77.6751413,,,,
01/03/2025 15:19:39,Raja Mobile Shop Lokha,6205138291,MADHUBANI,BIHAR,Sajan Kumar,Revisit,26.4466879,85.9114734,,,,
12/03/2025 14:19:15,Kumawat Enterprises,9928072773,TONK,RAJASTHAN,Satyanatayan Songera,Service Call,26.0276031,75.4830328,,,0,
05/03/2025 12:10:20,Shree sai cominuceson,8905366599,SURENDRA NAGAR,GUJARAT,ALFAZ VADADARIYA,Revisit,22.1707093,71.6657852,,,,
23/03/2025 14:03:39,Maa shree mobile,7633018515,DARBHANGA,BIHAR,Sagar Kumar Jha,Revisit,26.3684284,85.8843906,,,3,
05/03/2025 15:47:03,Umakant mo,8319484091,SATNA,MADHYA PRADESH,Vinay Kumar Gupta,Revisit,24.5606398,80.8378548,,,,
05/03/2025 12:27:44,Sharma mobile,9825900033,SURENDRA NAGAR,GUJARAT,ALFAZ VADADARIYA,Revisit,22.1707524,71.6657474,,,,
13/03/2025 15:50:38,Ami Mobile,9925716761,AMRELI,GUJARAT,DODIYA SALIMBHAI SULTANBHAI,Revisit,21.8449933,71.8010633,,,32,
07/03/2025 10:35:34,Riya mobile,9984151627,JALAUN,UTTAR PRADESH,Rohit Kumar,Revisit,26.287222,79.4320407,,,,
06/03/2025 10:55:00,namdar mobile,9824333434,AHMEDABAD,GUJARAT,ALFAZ VADADARIYA,Revisit,22.1695985,71.6919644,,,,
12/03/2025 19:28:37,Savan mobile center,7004965706,SITAMARHI,BIHAR,SAURABH KUMAR,Revisit,26.4818,85.42979,,,1,
23/03/2025 16:41:41,Maa Shree mobile darbhanga,7633018515,DARBHANGA,BIHAR,Sagar Kumar Jha,Revisit,26.3712907,85.8823624,,,,
04/03/2025 11:50:42,Hello mobile,7004211413,ARARIA,BIHAR,Sunil Jha,Revisit,26.3372198,87.3646814,,,,
10/03/2025 12:22:45,Jaiswal Telecom Lalgopalganj,,PRATAPGARH,UTTAR PRADESH,Satyendra Sharma,Revisit,26.2320962,81.2409186,,,,
03/03/2025 14:04:17,Gaurav Telecom,9896111645,KARNAL,HARYANA,Deepak KUmar,Revisit,29.400832,76.9902256,,,10,
06/03/2025 11:07:25,bhavani mobile,9537790079,AHMEDABAD,GUJARAT,ALFAZ VADADARIYA,Revisit,22.1631264,71.7779805,,,,
06/03/2025 15:44:54,Maruti mobile  sals& service,7016959558,AHMEDABAD,GUJARAT,ALFAZ VADADARIYA,Revisit,22.1508099,71.8956946,,,0,
13/03/2025 16:36:59,Nitin Point,8052088888,PRATAPGARH,UTTAR PRADESH,Satyendra Sharma,Revisit,26.2325968,81.248391,,,5,
06/03/2025 11:31:23,Raj mobile upleta,9016498652,RAJKOT,GUJARAT,MALEK RAHIL RAFIKBHAI,Revisit,21.7417439,70.2840075,,,11,
01/03/2025 20:04:58,Arihant Mobile,9302088701,BHOPAL,MADHYA PRADESH,AMAN SHRIVASTAVA,Revisit,23.3051968,77.4149865,,,1,
01/03/2025 17:50:30,Shiv krapa Mobile,8821971143,BHOPAL,MADHYA PRADESH,AMAN SHRIVASTAVA,Revisit,23.3050667,77.4147101,,,,
12/03/2025 11:35:26,New hanfi mobile,8469930236,RAJKOT,GUJARAT,MALEK RAHIL RAFIKBHAI,Revisit,21.7408941,70.2836394,,,,
18/03/2025 14:26:57,Mobile Ghar darbhanga donar,7004100866,DARBHANGA,BIHAR,Sagar Kumar Jha,Revisit,26.358855,85.886125,,,,
01/03/2025 12:13:19,Kashwani play store,8290044444,SHAJAPUR,MADHYA PRADESH,RAHUL PARMAR,Revisit,23.4240259,76.280706,,,370,
01/03/2025 16:01:06,Azad communication and CSC center,9122871775,DARBHANGA,BIHAR,Sajan Kumar,Revisit,26.4412691,85.8113542,,,,
06/03/2025 12:18:51,Kamna mobile,9303330414,SATNA,MADHYA PRADESH,Vinay Kumar Gupta,Revisit,24.3157521,80.9725792,,,,
06/03/2025 13:20:51,Generation mobile,9329513500,SATNA,MADHYA PRADESH,Vinay Kumar Gupta,Revisit,24.2164363,81.0851128,,,,
06/03/2025 14:52:55,Radhika mobile shop,7415816936,DAMOH,MADHYA PRADESH,Zaki Khan,Revisit,23.8428661,79.4355968,,,13,
06/03/2025 13:23:38,Akashganga mobile,9993718718,SATNA,MADHYA PRADESH,Vinay Kumar Gupta,Revisit,24.2165444,81.0850396,,,,
15/03/2025 18:03:46,Shyam Mobile,8707501825,HAMIRPUR,UTTAR PRADESH,Ajay,Revisit,25.8356067,80.154595,,,1,
05/03/2025 18:44:51,Shree radhe enterprises,7617270938,VIDISHA,MADHYA PRADESH,NIKHIL YADAV,Revisit,23.3390989,77.8284246,,,1,
06/03/2025 15:32:07,yogeshvar mobile,9998909913,AHMEDABAD,GUJARAT,ALFAZ VADADARIYA,Key Purchased,22.1508635,71.8956915,10,2000,14,00000195-6af5-d1a9-91b1-32051ae61551
08/03/2025 11:48:57,Prince Mobile Shop Lalgopalganj,,PRATAPGARH,UTTAR PRADESH,Satyendra Sharma,Revisit,25.9144941,81.9985111,,,,
11/03/2025 12:40:05,NPS Enterprises,9215444448,ROHTAK,HARYANA,Parvesh Kumar,Revisit,28.89129,76.5988517,,,,
17/03/2025 17:56:47,Mobile World,9919032181,PRATAPGARH,UTTAR PRADESH,Satyendra Sharma,Revisit,25.9179157,82.0003846,,,25,
05/03/2025 12:51:11,Hi tech mobile shop,9044736554,FARRUKHABAD,UTTAR PRADESH,Vijay Kumar,Revisit,27.5571227,79.3370777,,,13,
21/03/2025 15:49:49,Vakratund mobile,,PRATAPGARH,UTTAR PRADESH,Satyendra Sharma,Revisit,26.2392397,81.2379704,,,,
19/03/2025 11:36:15,New Shyam mobile upleta,9909298765,RAJKOT,GUJARAT,MALEK RAHIL RAFIKBHAI,Revisit,21.7412811,70.2819627,,,,
12/03/2025 11:10:05,Soni mobile shop uchana,8059364412,JIND,HARYANA,Sunder Lal,Revisit,29.4698362,76.1779689,,,,
18/03/2025 14:53:33,Harsh mobile,9905551896,DARBHANGA,BIHAR,Sagar Kumar Jha,Revisit,26.386,85.8945094,,,65,
01/03/2025 12:16:26,RK Mobile Lokaha,9006187935,MADHUBANI,BIHAR,Sajan Kumar,Revisit,26.3536658,86.0926465,,,,
07/03/2025 12:01:27,Planet Mobile,9336333210,KANPUR NAGAR,UTTAR PRADESH,Ashish Sharma,Revisit,26.4758816,80.2948085,,,1,
03/03/2025 13:36:02,Golu mobile Gallery,9755883375,PANNA,MADHYA PRADESH,Mohammad Waseem Akram,Revisit,24.7193222,80.193197,,,,
10/03/2025 11:29:54,New mobile care,9060719249,SITAMARHI,BIHAR,SAURABH KUMAR,Revisit,26.4844681,85.4305058,,,,
06/03/2025 11:32:43,M A Mobile,9761614015,SAHARANPUR,UTTAR PRADESH,NAVNEET KUMAR,Revisit,29.9068094,77.5164952,,,34,
03/03/2025 11:36:25,Shree Mobile,9617602928,BHOPAL,MADHYA PRADESH,AMAN SHRIVASTAVA,Revisit,23.301224,77.4240995,,,1,
06/03/2025 11:09:00,goldan mobile,7878008700,AHMEDABAD,GUJARAT,ALFAZ VADADARIYA,Revisit,22.1659928,71.7931675,,,0,
18/03/2025 19:04:08,Manish telicom,8709957794,DARBHANGA,BIHAR,Sagar Kumar Jha,Revisit,26.3899586,85.9251835,,,,
05/03/2025 17:18:43,Mehta pe phone,9708125916,SITAMARHI,BIHAR,SAURABH KUMAR,Revisit,26.4838151,85.4300952,,,1,
22/03/2025 13:09:35,Mayur telecom,9728010001,ROHTAK,HARYANA,Parvesh Kumar,Revisit,28.8911567,76.5989167,,,6,
06/03/2025 10:57:00,Nitin mobile,9993802200,DAMOH,MADHYA PRADESH,Zaki Khan,Revisit,23.8397607,79.4442819,,,,
07/03/2025 11:03:57,Gupta mobile and stationary,9981609590,DAMOH,MADHYA PRADESH,Zaki Khan,Revisit,23.8397683,79.4442918,,,11,
01/03/2025 10:31:05,Badal mobil shop,9546143747,ARARIA,BIHAR,Sunil Jha,Revisit,26.3782656,87.3785626,,,,
07/03/2025 12:51:25,Sonu Telecom,,PRATAPGARH,UTTAR PRADESH,Satyendra Sharma,Revisit,26.2058429,81.6866381,,,,
06/03/2025 11:18:46,avkar mobile,8154869298,AHMEDABAD,GUJARAT,ALFAZ VADADARIYA,Revisit,22.1611563,71.8580157,,,,
06/03/2025 18:51:03,Aditya Computer and Mobile Shop,,PRATAPGARH,UTTAR PRADESH,Satyendra Sharma,Revisit,25.9132367,82.0009117,,,,
08/03/2025 17:08:45,Govind Enterprises,7289990555,GHAZIABAD,UTTAR PRADESH,Vipin Shukla,Not Interested,28.6646933,77.4646117,,,,
04/03/2025 12:05:47,The mobile plaza,,FARRUKHABAD,UTTAR PRADESH,Vijay Kumar,Revisit,27.5445374,79.3418994,,,,
19/03/2025 20:32:05,Krishna enterprises,9896689226,ROHTAK,HARYANA,Parvesh Kumar,Not Interested,29.0931255,75.9645028,,,1,
19/03/2025 20:30:09,Mobile planet,9813523151,ROHTAK,HARYANA,Parvesh Kumar,Not Interested,29.0931255,75.9645028,,,1,
03/03/2025 11:22:37,V.K. Mobile Repairing,,PRATAPGARH,UTTAR PRADESH,Satyendra Sharma,Not Interested,26.0489999,81.8996914,,,,
04/03/2025 11:15:26,Pritesh Mobile,9926937756,BHOPAL,MADHYA PRADESH,AMAN SHRIVASTAVA,Revisit,23.305112,77.4146838,,,3,
19/03/2025 16:53:35,Maa hari shidhi  Mobile,9589691143,BHOPAL,MADHYA PRADESH,AMAN SHRIVASTAVA,Revisit,23.3050718,77.4147967,,,,
05/03/2025 14:05:47,Jay Kalyan mobile shop Naigaon,9923347373,NANDED,MAHARASHTRA,Sandeep Telange,Revisit,19.1684171,77.3046692,,,1,
19/03/2025 12:20:36,Mobile World,9919032181,PRATAPGARH,UTTAR PRADESH,Satyendra Sharma,Revisit,26.1715089,81.7508422,,,25,
06/03/2025 13:54:12,Shan Mani transfer point,8765117087,ALIGARH,UTTAR PRADESH,Rohit Kumar,Revisit,25.9833451,79.4597173,,,12,
15/03/2025 13:44:57,Mobile care begamganj,,RAISEN,MADHYA PRADESH,NIKHIL YADAV,Revisit,23.3391637,77.8285087,,,,
06/03/2025 15:52:21,Mohit comnication,9454230786,FARRUKHABAD,UTTAR PRADESH,Vijay Kumar,Revisit,27.5433002,79.3260364,,,1,
20/03/2025 16:47:53,Maheshwari mobile,9754177000,RAISEN,MADHYA PRADESH,NIKHIL YADAV,Revisit,23.4862132,77.7372548,,,12,
19/03/2025 20:33:26,Ananya rana communication,7015088009,ROHTAK,HARYANA,Parvesh Kumar,Not Interested,29.0931217,75.9646015,,,1,
08/03/2025 11:06:36,Nitin Point,8052088888,PRATAPGARH,UTTAR PRADESH,Satyendra Sharma,Revisit,26.15186,81.8078533,,,5,
18/03/2025 15:42:57,Jai maa kali mobile kamtual,7488585877,DARBHANGA,BIHAR,Sagar Kumar Jha,Revisit,26.3846833,85.8947283,,,,
04/03/2025 20:44:47,Balaji mobile,9992868077,ROHTAK,HARYANA,Parvesh Kumar,Revisit,28.8738574,76.6256576,,,,
05/03/2025 10:58:47,Ma Ambhika mobile shop,,VIDISHA,Madhya Pradesh,NIKHIL YADAV,Revisit,23.3346972,77.823684,,,,
06/03/2025 13:31:23,Rana Mobile,9758222261,SAHARANPUR,UTTAR PRADESH,NAVNEET KUMAR,Revisit,29.7791852,77.2654232,,,0,
19/03/2025 20:28:21,Mobile inn,7988375855,ROHTAK,HARYANA,Parvesh Kumar,Not Interested,29.0931193,75.9645108,,,1,
04/03/2025 12:46:27,Om Enterprises MADHWAPUR,9470271707,MADHUBANI,BIHAR,Sajan Kumar,Revisit,26.3417315,86.0776655,,,,
20/03/2025 17:37:48,Mobile office nirmali,7004217982,DARBHANGA,BIHAR,Sagar Kumar Jha,Revisit,26.362739,86.0100844,,,6,
08/03/2025 11:40:56,Hello india Mobile,7004102243,DHANBAD,JHARKHAND,Parmeswar Saw,Not Interested,23.854719,86.4206896,,,,
03/03/2025 11:36:50,Bhawani Mobile,9300970091,BHOPAL,MADHYA PRADESH,AMAN SHRIVASTAVA,Revisit,23.3011937,77.4240165,,,0,
06/03/2025 13:26:47,Atoz mobile,8349015015,SATNA,MADHYA PRADESH,Vinay Kumar Gupta,Revisit,24.21643,81.0851093,,,,
04/03/2025 19:36:47,Mobile magic,9893007862,SHAJAPUR,MADHYA PRADESH,RAHUL PARMAR,Revisit,23.5405205,76.203883,,,,
06/03/2025 13:29:58,One touch mobile,8319951980,SATNA,MADHYA PRADESH,Vinay Kumar Gupta,Revisit,24.2164685,81.0851189,,,,
17/03/2025 14:20:47,JTS Tyre And Mobile,9794095755,HAMIRPUR,UTTAR PRADESH,Ajay,Revisit,25.8269558,80.1684363,,,3,
05/03/2025 14:41:30,Shree dev kripa mobile,9827766239,DEWAS,MADHYA PRADESH,RAHUL PARMAR,Revisit,23.4239617,76.2809742,,,,
05/03/2025 10:43:19,S k mobile Ghar,9576065221,SITAMARHI,BIHAR,SAURABH KUMAR,Revisit,26.4844972,85.430647,,,,
05/03/2025 12:04:00,Amit mobile & Computers World,8188916572,KANPUR NAGAR,UTTAR PRADESH,Ashish Sharma,Not Interested,26.3995289,80.376734,,,,
03/03/2025 17:46:13,Prince mobile and electronic,8103968304,SHAJAPUR,MADHYA PRADESH,RAHUL PARMAR,Revisit,23.4239623,76.2809789,,,,
04/03/2025 13:04:14,Taj comnication,9389584818,FARRUKHABAD,UTTAR PRADESH,Vijay Kumar,Revisit,27.428816,79.4970074,,,67,
12/03/2025 15:30:39,New maroti nandan mobile gallary,9604409345,BULDHANA,MAHARASHTRA,Mohammad Irshad,Revisit,20.0180151,76.03745,,,0,
05/03/2025 13:07:12,Suraj comm. & rajdhani tv center,9812926262,ROHTAK,HARYANA,Parvesh Kumar,Revisit,28.8911833,76.5989083,,,,
12/03/2025 14:39:47,Kapil enterprises,9730928498,BULDHANA,MAHARASHTRA,Mohammad Irshad,Revisit,20.0178063,76.0371686,,,,
06/03/2025 13:49:26,Nijami mobile,9695032530,ALIGARH,UTTAR PRADESH,Rohit Kumar,Revisit,25.9833712,79.4597312,,,,
06/03/2025 14:48:54,Aadil telicom,9807385676,FARRUKHABAD,UTTAR PRADESH,Vijay Kumar,Revisit,27.5433121,79.3259713,,,,
08/03/2025 14:48:03,Nigam Mobile Shop,7398840909,HAMIRPUR,UTTAR PRADESH,Ajay,Revisit,25.9574462,80.148859,,,0,
08/03/2025 15:57:47,Vinod Mobile and recharge centre,,PRATAPGARH,UTTAR PRADESH,Satyendra Sharma,Revisit,25.9113614,82.0005046,,,,
04/03/2025 14:03:08,Vishwakarma Mobile Basopatti,7070680805,MADHUBANI,BIHAR,Sajan Kumar,Revisit,26.3464252,86.0761967,,,,
03/03/2025 17:17:14,Tarik sale and service,9955595338,ARARIA,BIHAR,Sunil Jha,Revisit,26.2403991,87.5666601,,,,
25/03/2025 16:34:56,Vindhyavasini Telecom,,PRATAPGARH,UTTAR PRADESH,Satyendra Sharma,Revisit,26.2248017,81.2561616,,,,
06/03/2025 12:39:41,Shubham mobile,6268803032,DAMOH,Madhya Pradesh,Zaki Khan,Revisit,23.9566144,79.4016837,,,7,
06/03/2025 16:21:54,Jain mobile novelty,9617355999,SHAJAPUR,MADHYA PRADESH,RAHUL PARMAR,Revisit,23.4240211,76.2806637,,,19,
06/03/2025 11:52:01,Jageswar mobile rajnagar,9981985427,CHHATARPUR,MADHYA PRADESH,Piyush Agrawal,Revisit,24.911088,79.5898871,,,,
06/03/2025 12:02:51,MB Mobile ghoghtiya,9661780612,DARBHANGA,BIHAR,Sagar Kumar Jha,Revisit,26.311395,85.95741,,,,
07/03/2025 12:56:25,S.R. Communication,7007352851,KANPUR NAGAR,UTTAR PRADESH,Ashish Sharma,Revisit,26.4969807,80.2506833,,,,
20/03/2025 12:29:42,Fantacy Telecom,,PRATAPGARH,UTTAR PRADESH,Satyendra Sharma,Not Interested,26.2329026,81.2384363,,,,
06/03/2025 13:32:09,Ravi mobile gallery,8923560713,SAHARANPUR,UTTAR PRADESH,NAVNEET KUMAR,Revisit,29.7791934,77.265428,,,0,
06/03/2025 14:54:58,Krishna mobile rajnagar,8770710448,CHHATARPUR,MADHYA PRADESH,Piyush Agrawal,Revisit,24.9807802,79.948474,,,7,
07/03/2025 14:40:52,Jawahar mobile,9827612340,UJJAIN,MADHYA PRADESH,RAHUL PARMAR,Revisit,23.2942621,76.1550054,,,,
07/03/2025 15:30:16,Manoj BSNL mobile shop,9451771444,FARRUKHABAD,UTTAR PRADESH,Vijay Kumar,Revisit,27.5389006,79.4387071,,,1,
